
[

{"_id":"B7Rsa9gPrk","geoCode":{"results":[{"address_components":[{"long_name":"Ilocos Norte","short_name":"Ilocos Norte","types":["administrative_area_level_2","political"]},{"long_name":"Ilocos Region","short_name":"Ilocos Region","types":["administrative_area_level_1","political"]},{"long_name":"Philippines","short_name":"PH","types":["country","political"]}],"formatted_address":"Ilocos Norte, Philippines","geometry":{"bounds":{"northeast":{"lat":18.650944,"lng":120.980399},"southwest":{"lat":17.698466,"lng":120.4281771}},"location":{"lat":18.1647281,"lng":120.7115592},"location_type":"APPROXIMATE","viewport":{"northeast":{"lat":18.650944,"lng":120.980399},"southwest":{"lat":17.698466,"lng":120.4281771}}},"place_id":"ChIJC2r-hfPPjjMR8ITECUSnKr4","types":["administrative_area_level_2","political"]}],"status":"OK"},"location":[120.7115592,18.1647281],"psgcCode":"012800000","name":"ILOCOS NORTE","regionCode":"01","provinceCode":"0128","_p_region":"Region$rBX1VhVfQu","_created_at":{"$date":"2017-09-14T13:19:27.713Z"},"_updated_at":{"$date":"2017-09-14T13:19:27.713Z"}}
,{"_id":"ZprAuhhOB2","geoCode":{"results":[{"address_components":[{"long_name":"Ilocos Sur","short_name":"Ilocos Sur","types":["administrative_area_level_2","political"]},{"long_name":"Ilocos Region","short_name":"Ilocos Region","types":["administrative_area_level_1","political"]},{"long_name":"Philippines","short_name":"PH","types":["country","political"]}],"formatted_address":"Ilocos Sur, Philippines","geometry":{"bounds":{"northeast":{"lat":17.9008269,"lng":120.860186},"southwest":{"lat":16.655479,"lng":120.3344729}},"location":{"lat":17.2278664,"lng":120.5739579},"location_type":"APPROXIMATE","viewport":{"northeast":{"lat":17.9008269,"lng":120.860186},"southwest":{"lat":16.655479,"lng":120.3344729}}},"place_id":"ChIJtfDOWzk-jjMRo62YG2HXOPM","types":["administrative_area_level_2","political"]}],"status":"OK"},"location":[120.5739579,17.2278664],"psgcCode":"012900000","name":"ILOCOS SUR","regionCode":"01","provinceCode":"0129","_p_region":"Region$rBX1VhVfQu","_created_at":{"$date":"2017-09-14T13:19:27.715Z"},"_updated_at":{"$date":"2017-09-14T13:19:27.715Z"}}
,{"_id":"8SbcedSnBq","geoCode":{"results":[{"address_components":[{"long_name":"La Union","short_name":"La Union","types":["administrative_area_level_2","political"]},{"long_name":"Ilocos Region","short_name":"Ilocos Region","types":["administrative_area_level_1","political"]},{"long_name":"Philippines","short_name":"PH","types":["country","political"]}],"formatted_address":"La Union, Philippines","geometry":{"bounds":{"northeast":{"lat":16.91881,"lng":120.5744889},"southwest":{"lat":16.207748,"lng":120.2798161}},"location":{"lat":16.6158906,"lng":120.3209373},"location_type":"APPROXIMATE","viewport":{"northeast":{"lat":16.91881,"lng":120.5744889},"southwest":{"lat":16.207748,"lng":120.2798161}}},"place_id":"ChIJc7uW2Z-QkTMREawSMEL1Dag","types":["administrative_area_level_2","political"]}],"status":"OK"},"location":[120.3209373,16.6158906],"psgcCode":"013300000","name":"LA UNION","regionCode":"01","provinceCode":"0133","_p_region":"Region$rBX1VhVfQu","_created_at":{"$date":"2017-09-14T13:19:27.723Z"},"_updated_at":{"$date":"2017-09-14T13:19:27.723Z"}}
,{"_id":"tiSHzyBKaB","geoCode":{"results":[{"address_components":[{"long_name":"Pangasinan","short_name":"Pangasinan","types":["administrative_area_level_2","political"]},{"long_name":"Ilocos Region","short_name":"Ilocos Region","types":["administrative_area_level_1","political"]},{"long_name":"Philippines","short_name":"PH","types":["country","political"]}],"formatted_address":"Pangasinan, Philippines","geometry":{"bounds":{"northeast":{"lat":16.426502,"lng":120.9229021},"southwest":{"lat":15.61848,"lng":119.7477111}},"location":{"lat":15.8949055,"lng":120.2863183},"location_type":"APPROXIMATE","viewport":{"northeast":{"lat":16.426502,"lng":120.9229021},"southwest":{"lat":15.61848,"lng":119.7477111}}},"place_id":"ChIJYwRUz55gkTMR40ADRhicvEQ","types":["administrative_area_level_2","political"]}],"status":"OK"},"location":[120.2863183,15.8949055],"psgcCode":"015500000","name":"PANGASINAN","regionCode":"01","provinceCode":"0155","_p_region":"Region$rBX1VhVfQu","_created_at":{"$date":"2017-09-14T13:19:27.724Z"},"_updated_at":{"$date":"2017-09-14T13:19:27.724Z"}}
,{"_id":"vBPzgrI8Rk","geoCode":{"results":[{"address_components":[{"long_name":"Batanes","short_name":"Batanes","types":["administrative_area_level_2","political"]},{"long_name":"Cagayan Valley","short_name":"Cagayan Valley","types":["administrative_area_level_1","political"]},{"long_name":"Philippines","short_name":"PH","types":["country","political"]}],"formatted_address":"Batanes, Philippines","geometry":{"bounds":{"northeast":{"lat":21.1206211,"lng":122.034889},"southwest":{"lat":20.2578261,"lng":121.778977}},"location":{"lat":20.4485074,"lng":121.9708129},"location_type":"APPROXIMATE","viewport":{"northeast":{"lat":21.1206211,"lng":122.034889},"southwest":{"lat":20.2578261,"lng":121.778977}}},"place_id":"ChIJnQkasavueTQRnwfojKB2fZk","types":["administrative_area_level_2","political"]}],"status":"OK"},"location":[121.9708129,20.4485074],"psgcCode":"020900000","name":"BATANES","regionCode":"02","provinceCode":"0209","_p_region":"Region$U2mENFe74Z","_created_at":{"$date":"2017-09-14T13:19:27.732Z"},"_updated_at":{"$date":"2017-09-14T13:19:27.732Z"}}
,{"_id":"jkKtNR9cGI","geoCode":{"results":[{"address_components":[{"long_name":"Cagayan","short_name":"Cagayan","types":["administrative_area_level_2","political"]},{"long_name":"Cagayan Valley","short_name":"Cagayan Valley","types":["administrative_area_level_1","political"]},{"long_name":"Philippines","short_name":"PH","types":["country","political"]}],"formatted_address":"Cagayan, Philippines","geometry":{"bounds":{"northeast":{"lat":19.9662668,"lng":122.33802},"southwest":{"lat":17.5081239,"lng":120.9600601}},"location":{"lat":18.2489629,"lng":121.8787833},"location_type":"APPROXIMATE","viewport":{"northeast":{"lat":19.9662668,"lng":122.33802},"southwest":{"lat":17.5081239,"lng":120.9600601}}},"place_id":"ChIJLTqLxz_5hTMRYMCccmvVRIU","types":["administrative_area_level_2","political"]}],"status":"OK"},"location":[121.8787833,18.2489629],"psgcCode":"021500000","name":"CAGAYAN","regionCode":"02","provinceCode":"0215","_p_region":"Region$U2mENFe74Z","_created_at":{"$date":"2017-09-14T13:19:27.733Z"},"_updated_at":{"$date":"2017-09-14T13:19:27.733Z"}}
,{"_id":"Wlecev9qhN","geoCode":{"results":[{"address_components":[{"long_name":"Isabela","short_name":"Isabela","types":["administrative_area_level_2","political"]},{"long_name":"Cagayan Valley","short_name":"Cagayan Valley","types":["administrative_area_level_1","political"]},{"long_name":"Philippines","short_name":"PH","types":["country","political"]}],"formatted_address":"Isabela, Philippines","geometry":{"bounds":{"northeast":{"lat":17.5454249,"lng":122.527809},"southwest":{"lat":16.3794739,"lng":121.3364481}},"location":{"lat":16.9753758,"lng":121.8107079},"location_type":"APPROXIMATE","viewport":{"northeast":{"lat":17.5454249,"lng":122.527809},"southwest":{"lat":16.3794739,"lng":121.3364481}}},"place_id":"ChIJN47LhvtGhTMRut0YP5jYJwY","types":["administrative_area_level_2","political"]}],"status":"OK"},"location":[121.8107079,16.9753758],"psgcCode":"023100000","name":"ISABELA","regionCode":"02","provinceCode":"0231","_p_region":"Region$U2mENFe74Z","_created_at":{"$date":"2017-09-14T13:19:27.748Z"},"_updated_at":{"$date":"2017-09-14T13:19:27.748Z"}}
,{"_id":"kkp91Fj0U2","geoCode":{"results":[{"address_components":[{"long_name":"Nueva Vizcaya","short_name":"Nueva Vizcaya","types":["administrative_area_level_2","political"]},{"long_name":"Cagayan Valley","short_name":"Cagayan Valley","types":["administrative_area_level_1","political"]},{"long_name":"Philippines","short_name":"PH","types":["country","political"]}],"formatted_address":"Nueva Vizcaya, Philippines","geometry":{"bounds":{"northeast":{"lat":16.7457349,"lng":121.465768},"southwest":{"lat":15.7672,"lng":120.756631}},"location":{"lat":16.3301107,"lng":121.1710389},"location_type":"APPROXIMATE","viewport":{"northeast":{"lat":16.7457349,"lng":121.465768},"southwest":{"lat":15.7672,"lng":120.756631}}},"place_id":"ChIJsdAHGA9YkDMRoVvn2-MsxmU","types":["administrative_area_level_2","political"]}],"status":"OK"},"location":[121.1710389,16.3301107],"psgcCode":"025000000","name":"NUEVA VIZCAYA","regionCode":"02","provinceCode":"0250","_p_region":"Region$U2mENFe74Z","_created_at":{"$date":"2017-09-14T13:19:27.762Z"},"_updated_at":{"$date":"2017-09-14T13:19:27.762Z"}}
,{"_id":"Wj4cQTuMdR","geoCode":{"results":[{"address_components":[{"long_name":"Quirino","short_name":"Quirino","types":["administrative_area_level_2","political"]},{"long_name":"Cagayan Valley","short_name":"Cagayan Valley","types":["administrative_area_level_1","political"]},{"long_name":"Philippines","short_name":"PH","types":["country","political"]}],"formatted_address":"Quirino, Philippines","geometry":{"bounds":{"northeast":{"lat":16.6307501,"lng":122.132405},"southwest":{"lat":15.915306,"lng":121.2881919}},"location":{"lat":16.2700424,"lng":121.5370003},"location_type":"APPROXIMATE","viewport":{"northeast":{"lat":16.6307501,"lng":122.132405},"southwest":{"lat":15.915306,"lng":121.2881919}}},"place_id":"ChIJEcgKsNeDmjMRq_t8udiSKfE","types":["administrative_area_level_2","political"]}],"status":"OK"},"location":[121.5370003,16.2700424],"psgcCode":"025700000","name":"QUIRINO","regionCode":"02","provinceCode":"0257","_p_region":"Region$U2mENFe74Z","_created_at":{"$date":"2017-09-14T13:19:27.777Z"},"_updated_at":{"$date":"2017-09-14T13:19:27.777Z"}}
,{"_id":"lQFaaJJUzs","geoCode":{"results":[{"address_components":[{"long_name":"Bataan","short_name":"Bataan","types":["administrative_area_level_2","political"]},{"long_name":"Central Luzon","short_name":"Central Luzon","types":["administrative_area_level_1","political"]},{"long_name":"Philippines","short_name":"PH","types":["country","political"]}],"formatted_address":"Bataan, Philippines","geometry":{"bounds":{"northeast":{"lat":14.9283039,"lng":120.626221},"southwest":{"lat":14.3550389,"lng":120.2416151}},"location":{"lat":14.6416842,"lng":120.4818446},"location_type":"APPROXIMATE","viewport":{"northeast":{"lat":14.9283039,"lng":120.626221},"southwest":{"lat":14.3550389,"lng":120.2416151}}},"place_id":"ChIJiXiYAeMUljMRSD3hXo_L4Go","types":["administrative_area_level_2","political"]}],"status":"OK"},"location":[120.4818446,14.6416842],"psgcCode":"030800000","name":"BATAAN","regionCode":"03","provinceCode":"0308","_p_region":"Region$siaKRJjGFB","_created_at":{"$date":"2017-09-14T13:19:27.777Z"},"_updated_at":{"$date":"2017-09-14T13:19:27.777Z"}}
,{"_id":"u2myHEEy1u","geoCode":{"results":[{"address_components":[{"long_name":"Bulacan","short_name":"Bulacan","types":["administrative_area_level_2","political"]},{"long_name":"Central Luzon","short_name":"Central Luzon","types":["administrative_area_level_1","political"]},{"long_name":"Philippines","short_name":"PH","types":["country","political"]}],"formatted_address":"Bulacan, Philippines","geometry":{"bounds":{"northeast":{"lat":15.2722271,"lng":121.347309},"southwest":{"lat":14.6920761,"lng":120.6649679}},"location":{"lat":14.9967842,"lng":121.1710389},"location_type":"APPROXIMATE","viewport":{"northeast":{"lat":15.2722271,"lng":121.347309},"southwest":{"lat":14.6920761,"lng":120.6649679}}},"place_id":"ChIJa0ro3RkHlzMRGV8Iw9c_mcM","types":["administrative_area_level_2","political"]}],"status":"OK"},"location":[121.1710389,14.9967842],"psgcCode":"031400000","name":"BULACAN","regionCode":"03","provinceCode":"0314","_p_region":"Region$siaKRJjGFB","_created_at":{"$date":"2017-09-14T13:19:27.786Z"},"_updated_at":{"$date":"2017-09-14T13:19:27.786Z"}}
,{"_id":"Q7gbebp8Ec","geoCode":{"results":[{"address_components":[{"long_name":"Nueva Ecija","short_name":"Nueva Ecija","types":["administrative_area_level_2","political"]},{"long_name":"Central Luzon","short_name":"Central Luzon","types":["administrative_area_level_1","political"]},{"long_name":"Philippines","short_name":"PH","types":["country","political"]}],"formatted_address":"Nueva Ecija, Philippines","geometry":{"bounds":{"northeast":{"lat":16.1302161,"lng":121.3782461},"southwest":{"lat":15.1651679,"lng":120.611833}},"location":{"lat":15.578375,"lng":121.1112615},"location_type":"APPROXIMATE","viewport":{"northeast":{"lat":16.1302161,"lng":121.3782461},"southwest":{"lat":15.1651679,"lng":120.611833}}},"place_id":"ChIJWwACT0PTkDMRy4bkUMbsz8A","types":["administrative_area_level_2","political"]}],"status":"OK"},"location":[121.1112615,15.578375],"psgcCode":"034900000","name":"NUEVA ECIJA","regionCode":"03","provinceCode":"0349","_p_region":"Region$siaKRJjGFB","_created_at":{"$date":"2017-09-14T13:19:27.786Z"},"_updated_at":{"$date":"2017-09-14T13:19:27.786Z"}}
,{"_id":"7ng2F9dkqj","geoCode":{"results":[{"address_components":[{"long_name":"Pampanga","short_name":"Pampanga","types":["administrative_area_level_2","political"]},{"long_name":"Central Luzon","short_name":"Central Luzon","types":["administrative_area_level_1","political"]},{"long_name":"Philippines","short_name":"PH","types":["country","political"]}],"formatted_address":"Pampanga, Philippines","geometry":{"bounds":{"northeast":{"lat":15.2718861,"lng":120.985538},"southwest":{"lat":14.7654161,"lng":120.3561269}},"location":{"lat":15.079409,"lng":120.6199895},"location_type":"APPROXIMATE","viewport":{"northeast":{"lat":15.2718861,"lng":120.985538},"southwest":{"lat":14.7654161,"lng":120.3561269}}},"place_id":"ChIJGWN3jYT0ljMR-Cbat4B4pVU","types":["administrative_area_level_2","political"]}],"status":"OK"},"location":[120.6199895,15.079409],"psgcCode":"035400000","name":"PAMPANGA","regionCode":"03","provinceCode":"0354","_p_region":"Region$siaKRJjGFB","_created_at":{"$date":"2017-09-14T13:19:27.798Z"},"_updated_at":{"$date":"2017-09-14T13:19:27.798Z"}}
,{"_id":"jRZuJUdwb7","geoCode":{"results":[{"address_components":[{"long_name":"Tarlac","short_name":"Tarlac","types":["administrative_area_level_2","political"]},{"long_name":"Central Luzon","short_name":"Central Luzon","types":["administrative_area_level_1","political"]},{"long_name":"Philippines","short_name":"PH","types":["country","political"]}],"formatted_address":"Tarlac, Philippines","geometry":{"bounds":{"northeast":{"lat":15.8856571,"lng":120.7828501},"southwest":{"lat":15.162662,"lng":120.1651679}},"location":{"lat":15.4470354,"lng":120.469642},"location_type":"APPROXIMATE","viewport":{"northeast":{"lat":15.8856571,"lng":120.7828501},"southwest":{"lat":15.162662,"lng":120.1651679}}},"place_id":"ChIJ8ynBRXS3ljMRReyDuZq4_gY","types":["administrative_area_level_2","political"]}],"status":"OK"},"location":[120.469642,15.4470354],"psgcCode":"036900000","name":"TARLAC","regionCode":"03","provinceCode":"0369","_p_region":"Region$siaKRJjGFB","_created_at":{"$date":"2017-09-14T13:19:27.810Z"},"_updated_at":{"$date":"2017-09-14T13:19:27.810Z"}}
,{"_id":"vulDDubdOs","geoCode":{"results":[{"address_components":[{"long_name":"Aurora","short_name":"Aurora","types":["administrative_area_level_2","political"]},{"long_name":"Central Luzon","short_name":"Central Luzon","types":["administrative_area_level_1","political"]},{"long_name":"Philippines","short_name":"PH","types":["country","political"]}],"formatted_address":"Aurora, Philippines","geometry":{"bounds":{"northeast":{"lat":16.5353161,"lng":122.28009},"southwest":{"lat":14.9997451,"lng":121.2799839}},"location":{"lat":16.0773636,"lng":121.7692535},"location_type":"APPROXIMATE","viewport":{"northeast":{"lat":16.5353161,"lng":122.28009},"southwest":{"lat":14.9997451,"lng":121.2799839}}},"place_id":"ChIJG_hoej0NmjMRS0CfUrl4ya4","types":["administrative_area_level_2","political"]}],"status":"OK"},"location":[121.7692535,16.0773636],"psgcCode":"037700000","name":"AURORA","regionCode":"03","provinceCode":"0377","_p_region":"Region$siaKRJjGFB","_created_at":{"$date":"2017-09-14T13:19:27.818Z"},"_updated_at":{"$date":"2017-09-14T13:19:27.818Z"}}
,{"_id":"5HnnUSWFTQ","geoCode":{"results":[{"address_components":[{"long_name":"Zambales","short_name":"Zambales","types":["administrative_area_level_2","political"]},{"long_name":"Central Luzon","short_name":"Central Luzon","types":["administrative_area_level_1","political"]},{"long_name":"Philippines","short_name":"PH","types":["country","political"]}],"formatted_address":"Zambales, Philippines","geometry":{"bounds":{"northeast":{"lat":15.845467,"lng":120.462163},"southwest":{"lat":14.739161,"lng":117.7090229}},"location":{"lat":15.5081766,"lng":119.9697808},"location_type":"APPROXIMATE","viewport":{"northeast":{"lat":15.845467,"lng":120.462163},"southwest":{"lat":14.739161,"lng":117.7090229}}},"place_id":"ChIJEfqjPuomlDMRevfQkx9Q-6U","types":["administrative_area_level_2","political"]}],"status":"OK"},"location":[119.9697808,15.5081766],"psgcCode":"037100000","name":"ZAMBALES","regionCode":"03","provinceCode":"0371","_p_region":"Region$siaKRJjGFB","_created_at":{"$date":"2017-09-14T13:19:27.818Z"},"_updated_at":{"$date":"2017-09-14T13:19:27.818Z"}}
,{"_id":"trVuzJhYcQ","geoCode":{"results":[{"address_components":[{"long_name":"Cavite","short_name":"Cavite","types":["administrative_area_level_2","political"]},{"long_name":"Calabarzon","short_name":"Calabarzon","types":["administrative_area_level_1","political"]},{"long_name":"Philippines","short_name":"PH","types":["country","political"]}],"formatted_address":"Cavite, Philippines","geometry":{"bounds":{"northeast":{"lat":14.4998709,"lng":121.0708711},"southwest":{"lat":14.063102,"lng":120.6209559}},"location":{"lat":14.2456329,"lng":120.8785658},"location_type":"APPROXIMATE","viewport":{"northeast":{"lat":14.4998709,"lng":121.0708711},"southwest":{"lat":14.063102,"lng":120.6209559}}},"place_id":"ChIJcTwW6OrUlzMRJ-fdO4TQxPA","types":["administrative_area_level_2","political"]}],"status":"OK"},"location":[120.8785658,14.2456329],"psgcCode":"042100000","name":"CAVITE","regionCode":"04","provinceCode":"0421","_p_region":"Region$TQam2Pdmu8","_created_at":{"$date":"2017-09-14T13:19:27.827Z"},"_updated_at":{"$date":"2017-09-14T13:19:27.827Z"}}
,{"_id":"JaeLSftLvb","geoCode":{"results":[{"address_components":[{"long_name":"Batangas","short_name":"Batangas","types":["administrative_area_level_2","political"]},{"long_name":"Calabarzon","short_name":"Calabarzon","types":["administrative_area_level_1","political"]},{"long_name":"Philippines","short_name":"PH","types":["country","political"]}],"formatted_address":"Batangas, Philippines","geometry":{"bounds":{"northeast":{"lat":14.22979,"lng":121.4706881},"southwest":{"lat":13.526222,"lng":120.5691601}},"location":{"lat":13.9450336,"lng":121.1312012},"location_type":"APPROXIMATE","viewport":{"northeast":{"lat":14.22979,"lng":121.4706881},"southwest":{"lat":13.526222,"lng":120.5691601}}},"place_id":"ChIJEZspM4ISvTMRo_3ntNgZqaE","types":["administrative_area_level_2","political"]}],"status":"OK"},"location":[121.1312012,13.9450336],"psgcCode":"041000000","name":"BATANGAS","regionCode":"04","provinceCode":"0410","_p_region":"Region$TQam2Pdmu8","_created_at":{"$date":"2017-09-14T13:19:27.824Z"},"_updated_at":{"$date":"2017-09-14T13:19:27.824Z"}}
,{"_id":"lGRQspfZhM","geoCode":{"results":[{"address_components":[{"long_name":"Laguna","short_name":"Laguna","types":["administrative_area_level_2","political"]},{"long_name":"Calabarzon","short_name":"Calabarzon","types":["administrative_area_level_1","political"]},{"long_name":"Philippines","short_name":"PH","types":["country","political"]}],"formatted_address":"Laguna, Philippines","geometry":{"bounds":{"northeast":{"lat":14.571074,"lng":121.632468},"southwest":{"lat":13.963392,"lng":121.005303}},"location":{"lat":14.1406629,"lng":121.4691774},"location_type":"APPROXIMATE","viewport":{"northeast":{"lat":14.571074,"lng":121.632468},"southwest":{"lat":13.963392,"lng":121.005303}}},"place_id":"ChIJffIroA5gvTMRJP9DF_KmntE","types":["administrative_area_level_2","political"]}],"status":"OK"},"location":[121.4691774,14.1406629],"psgcCode":"043400000","name":"LAGUNA","regionCode":"04","provinceCode":"0434","_p_region":"Region$TQam2Pdmu8","_created_at":{"$date":"2017-09-14T13:19:27.836Z"},"_updated_at":{"$date":"2017-09-14T13:19:27.836Z"}}
,{"_id":"I2NtTzgMJp","geoCode":{"results":[{"address_components":[{"long_name":"Quezon","short_name":"Quezon","types":["administrative_area_level_2","political"]},{"long_name":"Calabarzon","short_name":"Calabarzon","types":["administrative_area_level_1","political"]},{"long_name":"Philippines","short_name":"PH","types":["country","political"]}],"formatted_address":"Quezon, Philippines","geometry":{"bounds":{"northeast":{"lat":15.2107229,"lng":122.7915891},"southwest":{"lat":13.1596539,"lng":121.237315}},"location":{"lat":13.9346903,"lng":121.947311},"location_type":"APPROXIMATE","viewport":{"northeast":{"lat":15.2107229,"lng":122.7915891},"southwest":{"lat":13.1596539,"lng":121.237315}}},"place_id":"ChIJWziNTeafojMRH7SZ84zudoE","types":["administrative_area_level_2","political"]}],"status":"OK"},"location":[121.947311,13.9346903],"psgcCode":"045600000","name":"QUEZON","regionCode":"04","provinceCode":"0456","_p_region":"Region$TQam2Pdmu8","_created_at":{"$date":"2017-09-14T13:19:27.848Z"},"_updated_at":{"$date":"2017-09-14T13:19:27.848Z"}}
,{"_id":"acAODxFgJt","geoCode":{"results":[{"address_components":[{"long_name":"Rizal","short_name":"Rizal","types":["administrative_area_level_2","political"]},{"long_name":"Calabarzon","short_name":"Calabarzon","types":["administrative_area_level_1","political"]},{"long_name":"Philippines","short_name":"PH","types":["country","political"]}],"formatted_address":"Rizal, Philippines","geometry":{"bounds":{"northeast":{"lat":14.8888711,"lng":121.4698249},"southwest":{"lat":14.2880001,"lng":121.0935389}},"location":{"lat":14.6037446,"lng":121.3084088},"location_type":"APPROXIMATE","viewport":{"northeast":{"lat":14.8888711,"lng":121.4698249},"southwest":{"lat":14.2880001,"lng":121.0935389}}},"place_id":"ChIJ_fhVtdrBlzMRUC023-EsOek","types":["administrative_area_level_2","political"]}],"status":"OK"},"location":[121.3084088,14.6037446],"psgcCode":"045800000","name":"RIZAL","regionCode":"04","provinceCode":"0458","_p_region":"Region$TQam2Pdmu8","_created_at":{"$date":"2017-09-14T13:19:27.854Z"},"_updated_at":{"$date":"2017-09-14T13:19:27.854Z"}}
,{"_id":"0EeUoXi02O","geoCode":{"results":[{"address_components":[{"long_name":"Marinduque","short_name":"Marinduque","types":["administrative_area_level_2","political"]},{"long_name":"MIMAROPA","short_name":"MIMAROPA","types":["administrative_area_level_1","political"]},{"long_name":"Philippines","short_name":"PH","types":["country","political"]}],"formatted_address":"Marinduque, Philippines","geometry":{"bounds":{"northeast":{"lat":13.570887,"lng":122.188747},"southwest":{"lat":13.197212,"lng":121.80645}},"location":{"lat":13.4767171,"lng":121.9032192},"location_type":"APPROXIMATE","viewport":{"northeast":{"lat":13.570887,"lng":122.188747},"southwest":{"lat":13.197212,"lng":121.80645}}},"place_id":"ChIJv132waUYozMReztuW-qz_uk","types":["administrative_area_level_2","political"]}],"status":"OK"},"location":[121.9032192,13.4767171],"psgcCode":"174000000","name":"MARINDUQUE","regionCode":"17","provinceCode":"1740","_p_region":"Region$0RLc11iqe6","_created_at":{"$date":"2017-09-14T13:19:27.855Z"},"_updated_at":{"$date":"2017-09-14T13:19:27.855Z"}}
,{"_id":"Fhr4rkCkfs","geoCode":{"results":[{"address_components":[{"long_name":"Occidental Mindoro","short_name":"Occidental Mindoro","types":["administrative_area_level_2","political"]},{"long_name":"MIMAROPA","short_name":"MIMAROPA","types":["administrative_area_level_1","political"]},{"long_name":"Philippines","short_name":"PH","types":["country","political"]}],"formatted_address":"Occidental Mindoro, Philippines","geometry":{"bounds":{"northeast":{"lat":13.9028181,"lng":121.250199},"southwest":{"lat":12.1501619,"lng":120.0131231}},"location":{"lat":13.1024111,"lng":120.7651284},"location_type":"APPROXIMATE","viewport":{"northeast":{"lat":13.9028181,"lng":121.250199},"southwest":{"lat":12.1501619,"lng":120.0131231}}},"place_id":"ChIJPUlPa8eEuzMRXdtMCQGpLMY","types":["administrative_area_level_2","political"]}],"status":"OK"},"location":[120.7651284,13.1024111],"psgcCode":"175100000","name":"OCCIDENTAL MINDORO","regionCode":"17","provinceCode":"1751","_p_region":"Region$0RLc11iqe6","_created_at":{"$date":"2017-09-14T13:19:27.861Z"},"_updated_at":{"$date":"2017-09-14T13:19:27.861Z"}}
,{"_id":"GD68RvuQM5","geoCode":{"results":[{"address_components":[{"long_name":"Oriental Mindoro","short_name":"Oriental Mindoro","types":["administrative_area_level_2","political"]},{"long_name":"MIMAROPA","short_name":"MIMAROPA","types":["administrative_area_level_1","political"]},{"long_name":"Philippines","short_name":"PH","types":["country","political"]}],"formatted_address":"Oriental Mindoro, Philippines","geometry":{"bounds":{"northeast":{"lat":13.535515,"lng":121.558952},"southwest":{"lat":12.193862,"lng":120.8007199}},"location":{"lat":13.0564598,"lng":121.4069417},"location_type":"APPROXIMATE","viewport":{"northeast":{"lat":13.535515,"lng":121.558952},"southwest":{"lat":12.193862,"lng":120.8007199}}},"place_id":"ChIJUYh3HkdhuzMRTyMrJgYTTwk","types":["administrative_area_level_2","political"]}],"status":"OK"},"location":[121.4069417,13.0564598],"psgcCode":"175200000","name":"ORIENTAL MINDORO","regionCode":"17","provinceCode":"1752","_p_region":"Region$0RLc11iqe6","_created_at":{"$date":"2017-09-14T13:19:27.862Z"},"_updated_at":{"$date":"2017-09-14T13:19:27.862Z"}}
,{"_id":"6ZcK7qzvJU","geoCode":{"results":[{"address_components":[{"long_name":"Palawan","short_name":"Palawan","types":["administrative_area_level_2","political"]},{"long_name":"MIMAROPA","short_name":"MIMAROPA","types":["administrative_area_level_1","political"]},{"long_name":"Philippines","short_name":"PH","types":["country","political"]}],"formatted_address":"Palawan, Philippines","geometry":{"bounds":{"northeast":{"lat":12.6679941,"lng":121.302864},"southwest":{"lat":6.0727149,"lng":116.9315639}},"location":{"lat":9.8349493,"lng":118.7383615},"location_type":"APPROXIMATE","viewport":{"northeast":{"lat":12.6679941,"lng":121.302864},"southwest":{"lat":6.0727149,"lng":116.9315639}}},"place_id":"ChIJRZ65UOe8tTMR6zuNDGxfxt8","types":["administrative_area_level_2","political"]}],"status":"OK"},"location":[118.7383615,9.8349493],"psgcCode":"175300000","name":"PALAWAN","regionCode":"17","provinceCode":"1753","_p_region":"Region$0RLc11iqe6","_created_at":{"$date":"2017-09-14T13:19:27.871Z"},"_updated_at":{"$date":"2017-09-14T13:19:27.871Z"}}
,{"_id":"yG0iVlwskv","geoCode":{"results":[{"address_components":[{"long_name":"Romblon","short_name":"Romblon","types":["administrative_area_level_2","political"]},{"long_name":"MIMAROPA","short_name":"MIMAROPA","types":["administrative_area_level_1","political"]},{"long_name":"Philippines","short_name":"PH","types":["country","political"]}],"formatted_address":"Romblon, Philippines","geometry":{"bounds":{"northeast":{"lat":13.0322929,"lng":122.697731},"southwest":{"lat":12.032,"lng":121.68235}},"location":{"lat":12.5778016,"lng":122.269146},"location_type":"APPROXIMATE","viewport":{"northeast":{"lat":13.0322929,"lng":122.697731},"southwest":{"lat":12.032,"lng":121.68235}}},"place_id":"ChIJMd0yK4iNpDMRHUB_qqbbY6g","types":["administrative_area_level_2","political"]}],"status":"OK"},"location":[122.269146,12.5778016],"psgcCode":"175900000","name":"ROMBLON","regionCode":"17","provinceCode":"1759","_p_region":"Region$0RLc11iqe6","_created_at":{"$date":"2017-09-14T13:19:27.890Z"},"_updated_at":{"$date":"2017-09-14T13:19:27.890Z"}}
,{"_id":"sEGDdoyqdK","geoCode":{"results":[{"address_components":[{"long_name":"Legazpi City","short_name":"Legazpi City","types":["locality","political"]},{"long_name":"Albay","short_name":"Albay","types":["administrative_area_level_2","political"]},{"long_name":"Bicol","short_name":"Bicol","types":["administrative_area_level_1","political"]},{"long_name":"Philippines","short_name":"PH","types":["country","political"]}],"formatted_address":"Legazpi City, Albay, Philippines","geometry":{"bounds":{"northeast":{"lat":13.2536472,"lng":123.8622664},"southwest":{"lat":12.9881753,"lng":123.6840821}},"location":{"lat":13.1390621,"lng":123.7437995},"location_type":"APPROXIMATE","viewport":{"northeast":{"lat":13.2536472,"lng":123.8622664},"southwest":{"lat":12.9881753,"lng":123.6840821}}},"place_id":"ChIJp_ibfmgBoTMRelMUjedSUjA","types":["locality","political"]}],"status":"OK"},"location":[123.7437995,13.1390621],"psgcCode":"050500000","name":"ALBAY","regionCode":"05","provinceCode":"0505","_p_region":"Region$cE4HgGJ2IC","_created_at":{"$date":"2017-09-14T13:19:27.897Z"},"_updated_at":{"$date":"2017-09-14T13:19:27.897Z"}}
,{"_id":"fv4IvKlaml","geoCode":{"results":[{"address_components":[{"long_name":"Camarines Norte","short_name":"Camarines Norte","types":["administrative_area_level_2","political"]},{"long_name":"Bicol","short_name":"Bicol","types":["administrative_area_level_1","political"]},{"long_name":"Philippines","short_name":"PH","types":["country","political"]}],"formatted_address":"Camarines Norte, Philippines","geometry":{"bounds":{"northeast":{"lat":14.4936999,"lng":123.1201169},"southwest":{"lat":13.835935,"lng":122.301291}},"location":{"lat":14.1390265,"lng":122.7633036},"location_type":"APPROXIMATE","viewport":{"northeast":{"lat":14.4936999,"lng":123.1201169},"southwest":{"lat":13.835935,"lng":122.301291}}},"place_id":"ChIJkdZKSgqYmDMRh2ji-qiRr24","types":["administrative_area_level_2","political"]}],"status":"OK"},"location":[122.7633036,14.1390265],"psgcCode":"051600000","name":"CAMARINES NORTE","regionCode":"05","provinceCode":"0516","_p_region":"Region$cE4HgGJ2IC","_created_at":{"$date":"2017-09-14T13:19:27.897Z"},"_updated_at":{"$date":"2017-09-14T13:19:27.897Z"}}
,{"_id":"z3p9R1umcU","geoCode":{"results":[{"address_components":[{"long_name":"Masbate","short_name":"Masbate","types":["administrative_area_level_2","political"]},{"long_name":"Bicol","short_name":"Bicol","types":["administrative_area_level_1","political"]},{"long_name":"Philippines","short_name":"PH","types":["country","political"]}],"formatted_address":"Masbate, Philippines","geometry":{"bounds":{"northeast":{"lat":13.171676,"lng":124.1005779},"southwest":{"lat":11.708897,"lng":122.860435}},"location":{"lat":12.3060239,"lng":123.5588558},"location_type":"APPROXIMATE","viewport":{"northeast":{"lat":13.171676,"lng":124.1005779},"southwest":{"lat":11.708897,"lng":122.860435}}},"place_id":"ChIJH82sLsfHpjMRCsV7ngRlsaU","types":["administrative_area_level_2","political"]}],"status":"OK"},"location":[123.5588558,12.3060239],"psgcCode":"054100000","name":"MASBATE","regionCode":"05","provinceCode":"0541","_p_region":"Region$cE4HgGJ2IC","_created_at":{"$date":"2017-09-14T13:19:27.918Z"},"_updated_at":{"$date":"2017-09-14T13:19:27.918Z"}}
,{"_id":"7fAN6HoVn0","geoCode":{"results":[{"address_components":[{"long_name":"Camarines Sur","short_name":"Camarines Sur","types":["administrative_area_level_2","political"]},{"long_name":"Bicol","short_name":"Bicol","types":["administrative_area_level_1","political"]},{"long_name":"Philippines","short_name":"PH","types":["country","political"]}],"formatted_address":"Camarines Sur, Philippines","geometry":{"bounds":{"northeast":{"lat":14.1291151,"lng":123.97699},"southwest":{"lat":13.262519,"lng":122.5492549}},"location":{"lat":13.5250197,"lng":123.3486147},"location_type":"APPROXIMATE","viewport":{"northeast":{"lat":14.1291151,"lng":123.97699},"southwest":{"lat":13.262519,"lng":122.5492549}}},"place_id":"ChIJRUQDygfuoTMRSmogYt2pyMk","types":["administrative_area_level_2","political"]}],"status":"OK"},"location":[123.3486147,13.5250197],"psgcCode":"051700000","name":"CAMARINES SUR","regionCode":"05","provinceCode":"0517","_p_region":"Region$cE4HgGJ2IC","_created_at":{"$date":"2017-09-14T13:19:27.904Z"},"_updated_at":{"$date":"2017-09-14T13:19:27.904Z"}}
,{"_id":"NyBgmM1i2O","geoCode":{"results":[{"address_components":[{"long_name":"Catanduanes","short_name":"Catanduanes","types":["administrative_area_level_2","political"]},{"long_name":"Bicol","short_name":"Bicol","types":["administrative_area_level_1","political"]},{"long_name":"Philippines","short_name":"PH","types":["country","political"]}],"formatted_address":"Catanduanes, Philippines","geometry":{"bounds":{"northeast":{"lat":14.100537,"lng":124.42189},"southwest":{"lat":13.517974,"lng":124.0168879}},"location":{"lat":13.7088684,"lng":124.2421597},"location_type":"APPROXIMATE","viewport":{"northeast":{"lat":14.100537,"lng":124.42189},"southwest":{"lat":13.517974,"lng":124.0168879}}},"place_id":"ChIJy9J5j-v1nzMRVLLVwlWbUE0","types":["administrative_area_level_2","political"]}],"status":"OK"},"location":[124.2421597,13.7088684],"psgcCode":"052000000","name":"CATANDUANES","regionCode":"05","provinceCode":"0520","_p_region":"Region$cE4HgGJ2IC","_created_at":{"$date":"2017-09-14T13:19:27.904Z"},"_updated_at":{"$date":"2017-09-14T13:19:27.904Z"}}
,{"_id":"A9k3EvKbtS","geoCode":{"results":[{"address_components":[{"long_name":"Sorsogon","short_name":"Sorsogon","types":["administrative_area_level_2","political"]},{"long_name":"Bicol","short_name":"Bicol","types":["administrative_area_level_1","political"]},{"long_name":"Philippines","short_name":"PH","types":["country","political"]}],"formatted_address":"Sorsogon, Philippines","geometry":{"bounds":{"northeast":{"lat":13.122194,"lng":124.1974331},"southwest":{"lat":12.5244879,"lng":123.482237}},"location":{"lat":12.7599859,"lng":123.9303991},"location_type":"APPROXIMATE","viewport":{"northeast":{"lat":13.122194,"lng":124.1974331},"southwest":{"lat":12.5244879,"lng":123.482237}}},"place_id":"ChIJ67Npv9reoDMRsX2Jarf72Sg","types":["administrative_area_level_2","political"]}],"status":"OK"},"location":[123.9303991,12.7599859],"psgcCode":"056200000","name":"SORSOGON","regionCode":"05","provinceCode":"0562","_p_region":"Region$cE4HgGJ2IC","_created_at":{"$date":"2017-09-14T13:19:27.936Z"},"_updated_at":{"$date":"2017-09-14T13:19:27.936Z"}}
,{"_id":"V8kLYIQG0Y","geoCode":{"results":[{"address_components":[{"long_name":"Antique","short_name":"Antique","types":["administrative_area_level_2","political"]},{"long_name":"Western Visayas","short_name":"Western Visayas","types":["administrative_area_level_1","political"]},{"long_name":"Philippines","short_name":"PH","types":["country","political"]}],"formatted_address":"Antique, Philippines","geometry":{"bounds":{"northeast":{"lat":12.117357,"lng":122.325029},"southwest":{"lat":10.4172679,"lng":121.282436}},"location":{"lat":11.380579,"lng":122.0635005},"location_type":"APPROXIMATE","viewport":{"northeast":{"lat":12.117357,"lng":122.325029},"southwest":{"lat":10.4172679,"lng":121.282436}}},"place_id":"ChIJV2I832m5rzMRgS3oyKxYVMA","types":["administrative_area_level_2","political"]}],"status":"OK"},"location":[122.0635005,11.380579],"psgcCode":"060600000","name":"ANTIQUE","regionCode":"06","provinceCode":"0606","_p_region":"Region$eZEAv99TLX","_created_at":{"$date":"2017-09-14T13:19:27.947Z"},"_updated_at":{"$date":"2017-09-14T13:19:27.947Z"}}
,{"_id":"IztPkJuT2V","geoCode":{"results":[{"address_components":[{"long_name":"Aklan","short_name":"Aklan","types":["administrative_area_level_2","political"]},{"long_name":"Western Visayas","short_name":"Western Visayas","types":["administrative_area_level_1","political"]},{"long_name":"Philippines","short_name":"PH","types":["country","political"]}],"formatted_address":"Aklan, Philippines","geometry":{"bounds":{"northeast":{"lat":12.000588,"lng":122.5783839},"southwest":{"lat":11.311094,"lng":121.848633}},"location":{"lat":11.8166109,"lng":122.0941541},"location_type":"APPROXIMATE","viewport":{"northeast":{"lat":12.000588,"lng":122.5783839},"southwest":{"lat":11.311094,"lng":121.848633}}},"place_id":"ChIJg_5CC6R7pTMRlUHh2hMC_7s","types":["administrative_area_level_2","political"]}],"status":"OK"},"location":[122.0941541,11.8166109],"psgcCode":"060400000","name":"AKLAN","regionCode":"06","provinceCode":"0604","_p_region":"Region$eZEAv99TLX","_created_at":{"$date":"2017-09-14T13:19:27.946Z"},"_updated_at":{"$date":"2017-09-14T13:19:27.946Z"}}
,{"_id":"pXXtGG9DvY","geoCode":{"results":[{"address_components":[{"long_name":"Negros Occidental","short_name":"Negros Occidental","types":["administrative_area_level_2","political"]},{"long_name":"Western Visayas","short_name":"Western Visayas","types":["administrative_area_level_1","political"]},{"long_name":"Philippines","short_name":"PH","types":["country","political"]}],"formatted_address":"Negros Occidental, Philippines","geometry":{"bounds":{"northeast":{"lat":11.0461679,"lng":123.5701751},"southwest":{"lat":9.423715099999999,"lng":122.376343}},"location":{"lat":10.2925609,"lng":123.0246518},"location_type":"APPROXIMATE","viewport":{"northeast":{"lat":11.0461679,"lng":123.5701751},"southwest":{"lat":9.423715099999999,"lng":122.376343}}},"place_id":"ChIJ_UPTKXeprjMRRL5LNNPP4ms","types":["administrative_area_level_2","political"]}],"status":"OK"},"location":[123.0246518,10.2925609],"psgcCode":"184500000","name":"NEGROS OCCIDENTAL","regionCode":"18","provinceCode":"1845","_p_region":"Region$MpVQr1sjhe","_created_at":{"$date":"2017-09-14T13:19:27.965Z"},"_updated_at":{"$date":"2017-09-14T13:19:27.965Z"}}
,{"_id":"McsQxNUx9o","geoCode":{"results":[{"address_components":[{"long_name":"Capiz","short_name":"Capiz","types":["administrative_area_level_2","political"]},{"long_name":"Western Visayas","short_name":"Western Visayas","types":["administrative_area_level_1","political"]},{"long_name":"Philippines","short_name":"PH","types":["country","political"]}],"formatted_address":"Capiz, Philippines","geometry":{"bounds":{"northeast":{"lat":11.64556,"lng":123.10054},"southwest":{"lat":11.1436509,"lng":122.1992869}},"location":{"lat":11.3888799,"lng":122.6277455},"location_type":"APPROXIMATE","viewport":{"northeast":{"lat":11.64556,"lng":123.10054},"southwest":{"lat":11.1436509,"lng":122.1992869}}},"place_id":"ChIJC68E6BRnrzMRD8uGbpfldk0","types":["administrative_area_level_2","political"]}],"status":"OK"},"location":[122.6277455,11.3888799],"psgcCode":"061900000","name":"CAPIZ","regionCode":"06","provinceCode":"0619","_p_region":"Region$eZEAv99TLX","_created_at":{"$date":"2017-09-14T13:19:27.964Z"},"_updated_at":{"$date":"2017-09-14T13:19:27.964Z"}}
,{"_id":"PIQlBvXLUh","geoCode":{"results":[{"address_components":[{"long_name":"Iloilo City","short_name":"Iloilo City","types":["locality","political"]},{"long_name":"Iloilo","short_name":"Iloilo","types":["administrative_area_level_2","political"]},{"long_name":"Western Visayas","short_name":"Western Visayas","types":["administrative_area_level_1","political"]},{"long_name":"Philippines","short_name":"PH","types":["country","political"]}],"formatted_address":"Iloilo City, Iloilo, Philippines","geometry":{"bounds":{"northeast":{"lat":10.7818569,"lng":122.6027869},"southwest":{"lat":10.6779834,"lng":122.4939538}},"location":{"lat":10.7201501,"lng":122.5621063},"location_type":"APPROXIMATE","viewport":{"northeast":{"lat":10.7818569,"lng":122.6027869},"southwest":{"lat":10.6779834,"lng":122.4939538}}},"place_id":"ChIJgdc45W_lrjMRiKQwvNYMJeg","types":["locality","political"]}],"status":"OK"},"location":[122.5621063,10.7201501],"psgcCode":"063000000","name":"ILOILO","regionCode":"06","provinceCode":"0630","_p_region":"Region$eZEAv99TLX","_created_at":{"$date":"2017-09-14T13:19:27.965Z"},"_updated_at":{"$date":"2017-09-14T13:19:27.965Z"}}
,{"_id":"4DyuFUDSw4","geoCode":{"results":[{"address_components":[{"long_name":"Guimaras","short_name":"Guimaras","types":["administrative_area_level_2","political"]},{"long_name":"Western Visayas","short_name":"Western Visayas","types":["administrative_area_level_1","political"]},{"long_name":"Philippines","short_name":"PH","types":["country","political"]}],"formatted_address":"Guimaras, Philippines","geometry":{"bounds":{"northeast":{"lat":10.757893,"lng":122.741077},"southwest":{"lat":10.389255,"lng":122.4744491}},"location":{"lat":10.5928661,"lng":122.6325081},"location_type":"APPROXIMATE","viewport":{"northeast":{"lat":10.757893,"lng":122.741077},"southwest":{"lat":10.389255,"lng":122.4744491}}},"place_id":"ChIJ0SCN80PsrjMR_N5Wa1eJuSQ","types":["administrative_area_level_2","political"]}],"status":"OK"},"location":[122.6325081,10.5928661],"psgcCode":"067900000","name":"GUIMARAS","regionCode":"06","provinceCode":"0679","_p_region":"Region$eZEAv99TLX","_created_at":{"$date":"2017-09-14T13:19:27.987Z"},"_updated_at":{"$date":"2017-09-14T13:19:27.987Z"}}
,{"_id":"8IVBuKbVLQ","geoCode":{"results":[{"address_components":[{"long_name":"Cebu City","short_name":"Cebu City","types":["locality","political"]},{"long_name":"Cebu","short_name":"Cebu","types":["administrative_area_level_2","political"]},{"long_name":"Central Visayas","short_name":"Central Visayas","types":["administrative_area_level_1","political"]},{"long_name":"Philippines","short_name":"PH","types":["country","political"]}],"formatted_address":"Cebu City, Cebu, Philippines","geometry":{"bounds":{"northeast":{"lat":10.498277,"lng":123.9291998},"southwest":{"lat":10.2592519,"lng":123.7633896}},"location":{"lat":10.3156992,"lng":123.8854366},"location_type":"APPROXIMATE","viewport":{"northeast":{"lat":10.498277,"lng":123.9291998},"southwest":{"lat":10.2592519,"lng":123.7633896}}},"place_id":"ChIJ_S3NjSWZqTMRBzXT2wwDNEw","types":["locality","political"]}],"status":"OK"},"location":[123.8854366,10.3156992],"psgcCode":"072200000","name":"CEBU","regionCode":"07","provinceCode":"0722","_p_region":"Region$j5T0vJuz2z","_created_at":{"$date":"2017-09-14T13:19:27.999Z"},"_updated_at":{"$date":"2017-09-14T13:19:27.999Z"}}
,{"_id":"8QlKeNG4HV","geoCode":{"results":[{"address_components":[{"long_name":"Bohol","short_name":"Bohol","types":["administrative_area_level_2","political"]},{"long_name":"Central Visayas","short_name":"Central Visayas","types":["administrative_area_level_1","political"]},{"long_name":"Philippines","short_name":"PH","types":["country","political"]}],"formatted_address":"Bohol, Philippines","geometry":{"bounds":{"northeast":{"lat":10.2562529,"lng":124.620529},"southwest":{"lat":9.4847629,"lng":123.719351}},"location":{"lat":9.849991099999999,"lng":124.1435427},"location_type":"APPROXIMATE","viewport":{"northeast":{"lat":10.2562529,"lng":124.620529},"southwest":{"lat":9.4847629,"lng":123.719351}}},"place_id":"ChIJ31ShG94XqjMRINAYIQS_yGs","types":["administrative_area_level_2","political"]}],"status":"OK"},"location":[124.1435427,9.849991099999999],"psgcCode":"071200000","name":"BOHOL","regionCode":"07","provinceCode":"0712","_p_region":"Region$j5T0vJuz2z","_created_at":{"$date":"2017-09-14T13:19:27.998Z"},"_updated_at":{"$date":"2017-09-14T13:19:27.998Z"}}
,{"_id":"ZIrAbkjeTY","geoCode":{"results":[{"address_components":[{"long_name":"Eastern Samar","short_name":"Eastern Samar","types":["administrative_area_level_2","political"]},{"long_name":"Eastern Visayas","short_name":"Eastern Visayas","types":["administrative_area_level_1","political"]},{"long_name":"Philippines","short_name":"PH","types":["country","political"]}],"formatted_address":"Eastern Samar, Philippines","geometry":{"bounds":{"northeast":{"lat":12.370305,"lng":125.9698791},"southwest":{"lat":10.690784,"lng":125.1116951}},"location":{"lat":11.5000731,"lng":125.4999908},"location_type":"APPROXIMATE","viewport":{"northeast":{"lat":12.370305,"lng":125.9698791},"southwest":{"lat":10.690784,"lng":125.1116951}}},"place_id":"ChIJj4Q9ER_kCDMRj6g0QpiH7ZU","types":["administrative_area_level_2","political"]}],"status":"OK"},"location":[125.4999908,11.5000731],"psgcCode":"082600000","name":"EASTERN SAMAR","regionCode":"08","provinceCode":"0826","_p_region":"Region$VL85ajG5eZ","_created_at":{"$date":"2017-09-14T13:19:28.022Z"},"_updated_at":{"$date":"2017-09-14T13:19:28.022Z"}}
,{"_id":"YMuKTMOD8a","geoCode":{"results":[{"address_components":[{"long_name":"Negros Oriental","short_name":"Negros Oriental","types":["administrative_area_level_2","political"]},{"long_name":"Central Visayas","short_name":"Central Visayas","types":["administrative_area_level_1","political"]},{"long_name":"Philippines","short_name":"PH","types":["country","political"]}],"formatted_address":"Negros Oriental, Philippines","geometry":{"bounds":{"northeast":{"lat":10.4163581,"lng":123.341537},"southwest":{"lat":9.036671,"lng":122.6101151}},"location":{"lat":9.628208299999999,"lng":122.9888319},"location_type":"APPROXIMATE","viewport":{"northeast":{"lat":10.4163581,"lng":123.341537},"southwest":{"lat":9.036671,"lng":122.6101151}}},"place_id":"ChIJH9v499pwrDMRkcwkbdc4qUQ","types":["administrative_area_level_2","political"]}],"status":"OK"},"location":[122.9888319,9.628208299999999],"psgcCode":"184600000","name":"NEGROS ORIENTAL","regionCode":"18","provinceCode":"1846","_p_region":"Region$MpVQr1sjhe","_created_at":{"$date":"2017-09-14T13:19:28.020Z"},"_updated_at":{"$date":"2017-09-14T13:19:28.020Z"}}
,{"_id":"Y3sht1ZUEZ","geoCode":{"results":[{"address_components":[{"long_name":"Siquijor","short_name":"Siquijor","types":["administrative_area_level_2","political"]},{"long_name":"Central Visayas","short_name":"Central Visayas","types":["administrative_area_level_1","political"]},{"long_name":"Philippines","short_name":"PH","types":["country","political"]}],"formatted_address":"Siquijor, Philippines","geometry":{"bounds":{"northeast":{"lat":9.301905099999999,"lng":123.704605},"southwest":{"lat":9.093350899999999,"lng":123.4551929}},"location":{"lat":9.199877899999999,"lng":123.5951925},"location_type":"APPROXIMATE","viewport":{"northeast":{"lat":9.301905099999999,"lng":123.704605},"southwest":{"lat":9.093350899999999,"lng":123.4551929}}},"place_id":"ChIJ0QidlDMWqzMR26JfURwKots","types":["administrative_area_level_2","political"]}],"status":"OK"},"location":[123.5951925,9.199877899999999],"psgcCode":"076100000","name":"SIQUIJOR","regionCode":"07","provinceCode":"0761","_p_region":"Region$j5T0vJuz2z","_created_at":{"$date":"2017-09-14T13:19:28.021Z"},"_updated_at":{"$date":"2017-09-14T13:19:28.021Z"}}
,{"_id":"NKL6JJnh5t","geoCode":{"results":[{"address_components":[{"long_name":"Leyte","short_name":"Leyte","types":["administrative_area_level_2","political"]},{"long_name":"Eastern Visayas","short_name":"Eastern Visayas","types":["administrative_area_level_1","political"]},{"long_name":"Philippines","short_name":"PH","types":["country","political"]}],"formatted_address":"Leyte, Philippines","geometry":{"bounds":{"northeast":{"lat":11.5655889,"lng":125.1496961},"southwest":{"lat":10.182806,"lng":124.287224}},"location":{"lat":11.0891039,"lng":124.8922824},"location_type":"APPROXIMATE","viewport":{"northeast":{"lat":11.5655889,"lng":125.1496961},"southwest":{"lat":10.182806,"lng":124.287224}}},"place_id":"ChIJ4TnilcbtBzMR0_L6-A-Cr48","types":["administrative_area_level_2","political"]}],"status":"OK"},"location":[124.8922824,11.0891039],"psgcCode":"083700000","name":"LEYTE","regionCode":"08","provinceCode":"0837","_p_region":"Region$VL85ajG5eZ","_created_at":{"$date":"2017-09-14T13:19:28.048Z"},"_updated_at":{"$date":"2017-09-14T13:19:28.048Z"}}
,{"_id":"pkqGr1uGSV","geoCode":{"results":[{"address_components":[{"long_name":"Samar","short_name":"Samar","types":["administrative_area_level_2","political"]},{"long_name":"Eastern Visayas","short_name":"Eastern Visayas","types":["administrative_area_level_1","political"]},{"long_name":"Philippines","short_name":"PH","types":["country","political"]}],"formatted_address":"Samar, Philippines","geometry":{"bounds":{"northeast":{"lat":12.334325,"lng":125.307814},"southwest":{"lat":11.0872409,"lng":124.1477429}},"location":{"lat":11.5795195,"lng":124.9748219},"location_type":"APPROXIMATE","viewport":{"northeast":{"lat":12.334325,"lng":125.307814},"southwest":{"lat":11.0872409,"lng":124.1477429}}},"place_id":"ChIJFzMfDUpICDMR1zI106TV0GA","types":["administrative_area_level_2","political"]}],"status":"OK"},"location":[124.9748219,11.5795195],"psgcCode":"086000000","name":"SAMAR (WESTERN SAMAR)","regionCode":"08","provinceCode":"0860","_p_region":"Region$VL85ajG5eZ","_created_at":{"$date":"2017-09-14T13:19:28.062Z"},"_updated_at":{"$date":"2017-09-14T13:19:28.062Z"}}
,{"_id":"4RSsnvZShx","geoCode":{"results":[{"address_components":[{"long_name":"Northern Samar","short_name":"Northern Samar","types":["administrative_area_level_2","political"]},{"long_name":"Eastern Visayas","short_name":"Eastern Visayas","types":["administrative_area_level_1","political"]},{"long_name":"Philippines","short_name":"PH","types":["country","political"]}],"formatted_address":"Northern Samar, Philippines","geometry":{"bounds":{"northeast":{"lat":12.697834,"lng":125.3443369},"southwest":{"lat":12.1405061,"lng":124.000565}},"location":{"lat":12.3613199,"lng":124.7740793},"location_type":"APPROXIMATE","viewport":{"northeast":{"lat":12.697834,"lng":125.3443369},"southwest":{"lat":12.1405061,"lng":124.000565}}},"place_id":"ChIJEY0Gn6b1CTMRMKeOYBPNTgo","types":["administrative_area_level_2","political"]}],"status":"OK"},"location":[124.7740793,12.3613199],"psgcCode":"084800000","name":"NORTHERN SAMAR","regionCode":"08","provinceCode":"0848","_p_region":"Region$VL85ajG5eZ","_created_at":{"$date":"2017-09-14T13:19:28.061Z"},"_updated_at":{"$date":"2017-09-14T13:19:28.061Z"}}
,{"_id":"K2j2rTjmkx","geoCode":{"results":[{"address_components":[{"long_name":"Biliran","short_name":"Biliran","types":["administrative_area_level_2","political"]},{"long_name":"Eastern Visayas","short_name":"Eastern Visayas","types":["administrative_area_level_1","political"]},{"long_name":"Philippines","short_name":"PH","types":["country","political"]}],"formatted_address":"Biliran, Philippines","geometry":{"bounds":{"northeast":{"lat":11.815609,"lng":124.619644},"southwest":{"lat":11.463108,"lng":124.255882}},"location":{"lat":11.5833152,"lng":124.4641848},"location_type":"APPROXIMATE","viewport":{"northeast":{"lat":11.815609,"lng":124.619644},"southwest":{"lat":11.463108,"lng":124.255882}}},"place_id":"ChIJdynM6FWKpzMRq1K1gnFOqi0","types":["administrative_area_level_2","political"]}],"status":"OK"},"location":[124.4641848,11.5833152],"psgcCode":"087800000","name":"BILIRAN","regionCode":"08","provinceCode":"0878","_p_region":"Region$VL85ajG5eZ","_created_at":{"$date":"2017-09-14T13:19:28.094Z"},"_updated_at":{"$date":"2017-09-14T13:19:28.094Z"}}
,{"_id":"z5OhLNAzKD","geoCode":{"results":[{"address_components":[{"long_name":"Zamboanga del Sur","short_name":"Zamboanga del Sur","types":["administrative_area_level_2","political"]},{"long_name":"Zamboanga Peninsula","short_name":"Zamboanga Peninsula","types":["administrative_area_level_1","political"]},{"long_name":"Philippines","short_name":"PH","types":["country","political"]}],"formatted_address":"Zamboanga del Sur, Philippines","geometry":{"bounds":{"northeast":{"lat":8.2364218,"lng":123.669302},"southwest":{"lat":7.358587999999999,"lng":122.916847}},"location":{"lat":7.838305399999999,"lng":123.2966657},"location_type":"APPROXIMATE","viewport":{"northeast":{"lat":8.2364218,"lng":123.669302},"southwest":{"lat":7.358587999999999,"lng":122.916847}}},"place_id":"ChIJA8Nfv3EbVDIRB8L1QeMcxLw","types":["administrative_area_level_2","political"]}],"status":"OK"},"location":[123.2966657,7.838305399999999],"psgcCode":"097300000","name":"ZAMBOANGA DEL SUR","regionCode":"09","provinceCode":"0973","_p_region":"Region$CuaDpO7oND","_created_at":{"$date":"2017-09-14T13:19:28.107Z"},"_updated_at":{"$date":"2017-09-14T13:19:28.107Z"}}
,{"_id":"4U9HdMjx8X","geoCode":{"results":[{"address_components":[{"long_name":"Southern Leyte","short_name":"Southern Leyte","types":["administrative_area_level_2","political"]},{"long_name":"Eastern Visayas","short_name":"Eastern Visayas","types":["administrative_area_level_1","political"]},{"long_name":"Philippines","short_name":"PH","types":["country","political"]}],"formatted_address":"Southern Leyte, Philippines","geometry":{"bounds":{"northeast":{"lat":10.6297369,"lng":125.3031311},"southwest":{"lat":9.892707999999999,"lng":124.755684}},"location":{"lat":10.3346206,"lng":125.1708741},"location_type":"APPROXIMATE","viewport":{"northeast":{"lat":10.6297369,"lng":125.3031311},"southwest":{"lat":9.892707999999999,"lng":124.755684}}},"place_id":"ChIJ9SlbfZEXBzMRs9Ip9es_Xmg","types":["administrative_area_level_2","political"]}],"status":"OK"},"location":[125.1708741,10.3346206],"psgcCode":"086400000","name":"SOUTHERN LEYTE","regionCode":"08","provinceCode":"0864","_p_region":"Region$VL85ajG5eZ","_created_at":{"$date":"2017-09-14T13:19:28.094Z"},"_updated_at":{"$date":"2017-09-14T13:19:28.094Z"}}
,{"_id":"V3cK2DksLS","geoCode":{"results":[{"address_components":[{"long_name":"Zamboanga del Norte","short_name":"Zamboanga del Norte","types":["administrative_area_level_2","political"]},{"long_name":"Zamboanga Peninsula","short_name":"Zamboanga Peninsula","types":["administrative_area_level_1","political"]},{"long_name":"Philippines","short_name":"PH","types":["country","political"]}],"formatted_address":"Zamboanga del Norte, Philippines","geometry":{"bounds":{"northeast":{"lat":8.871101999999999,"lng":123.559396},"southwest":{"lat":7.144729000000001,"lng":121.898338}},"location":{"lat":8.3886282,"lng":123.1688883},"location_type":"APPROXIMATE","viewport":{"northeast":{"lat":8.871101999999999,"lng":123.559396},"southwest":{"lat":7.144729000000001,"lng":121.898338}}},"place_id":"ChIJYStbKbvpUzIRzmByJwLRIRg","types":["administrative_area_level_2","political"]}],"status":"OK"},"location":[123.1688883,8.3886282],"psgcCode":"097200000","name":"ZAMBOANGA DEL NORTE","regionCode":"09","provinceCode":"0972","_p_region":"Region$CuaDpO7oND","_created_at":{"$date":"2017-09-14T13:19:28.095Z"},"_updated_at":{"$date":"2017-09-14T13:19:28.095Z"}}
,{"_id":"wdZcyR9XSk","geoCode":{"results":[{"address_components":[{"long_name":"Isabela City","short_name":"Isabela City","types":["locality","political"]},{"long_name":"Basilan","short_name":"Basilan","types":["administrative_area_level_2","political"]},{"long_name":"Zamboanga Peninsula","short_name":"Zamboanga Peninsula","types":["administrative_area_level_1","political"]},{"long_name":"Philippines","short_name":"PH","types":["country","political"]}],"formatted_address":"Isabela City, Basilan, Philippines","geometry":{"bounds":{"northeast":{"lat":6.758971,"lng":122.0638561},"southwest":{"lat":6.577814699999999,"lng":121.9143391}},"location":{"lat":6.7029445,"lng":121.969},"location_type":"APPROXIMATE","viewport":{"northeast":{"lat":6.758971,"lng":122.0638561},"southwest":{"lat":6.577814699999999,"lng":121.9143391}}},"place_id":"ChIJUW03EjULUDIRinmUSA9KKvA","types":["locality","political"]}],"status":"OK"},"location":[121.969,6.7029445],"psgcCode":"099700000","name":"CITY OF ISABELA","regionCode":"09","provinceCode":"0997","_p_region":"Region$CuaDpO7oND","_created_at":{"$date":"2017-09-14T13:19:28.127Z"},"_updated_at":{"$date":"2017-09-14T13:19:28.127Z"}}
,{"_id":"MboY75Lj4y","geoCode":{"results":[{"address_components":[{"long_name":"Zamboanga Sibugay","short_name":"Zamboanga Sibugay","types":["administrative_area_level_2","political"]},{"long_name":"Zamboanga Peninsula","short_name":"Zamboanga Peninsula","types":["administrative_area_level_1","political"]},{"long_name":"Philippines","short_name":"PH","types":["country","political"]}],"formatted_address":"Zamboanga Sibugay, Philippines","geometry":{"bounds":{"northeast":{"lat":7.946023899999999,"lng":123.0967181},"southwest":{"lat":6.8557861,"lng":121.8941269}},"location":{"lat":7.5225247,"lng":122.3107517},"location_type":"APPROXIMATE","viewport":{"northeast":{"lat":7.946023899999999,"lng":123.0967181},"southwest":{"lat":6.8557861,"lng":121.8941269}}},"place_id":"ChIJz3PRlclnUTIRben5DER5IYg","types":["administrative_area_level_2","political"]}],"status":"OK"},"location":[122.3107517,7.5225247],"psgcCode":"098300000","name":"ZAMBOANGA SIBUGAY","regionCode":"09","provinceCode":"0983","_p_region":"Region$CuaDpO7oND","_created_at":{"$date":"2017-09-14T13:19:28.127Z"},"_updated_at":{"$date":"2017-09-14T13:19:28.127Z"}}
,{"_id":"C2ls3C5WBf","geoCode":{"results":[{"address_components":[{"long_name":"Bukidnon","short_name":"Bukidnon","types":["administrative_area_level_2","political"]},{"long_name":"Northern Mindanao","short_name":"Northern Mindanao","types":["administrative_area_level_1","political"]},{"long_name":"Philippines","short_name":"PH","types":["country","political"]}],"formatted_address":"Bukidnon, Philippines","geometry":{"bounds":{"northeast":{"lat":8.593256,"lng":125.444464},"southwest":{"lat":7.3991609,"lng":124.4961241}},"location":{"lat":8.0515054,"lng":124.9229946},"location_type":"APPROXIMATE","viewport":{"northeast":{"lat":8.593256,"lng":125.444464},"southwest":{"lat":7.3991609,"lng":124.4961241}}},"place_id":"ChIJ9U7g1g0O_zIRzXKKfOveMiU","types":["administrative_area_level_2","political"]}],"status":"OK"},"location":[124.9229946,8.0515054],"psgcCode":"101300000","name":"BUKIDNON","regionCode":"10","provinceCode":"1013","_p_region":"Region$9KROAdFrWS","_created_at":{"$date":"2017-09-14T13:19:28.142Z"},"_updated_at":{"$date":"2017-09-14T13:19:28.142Z"}}
,{"_id":"kbNkHxILLM","geoCode":{"results":[{"address_components":[{"long_name":"Camiguin Island","short_name":"Camiguin Island","types":["establishment","natural_feature"]},{"long_name":"Camiguin","short_name":"Camiguin","types":["administrative_area_level_2","political"]},{"long_name":"Northern Mindanao","short_name":"Northern Mindanao","types":["administrative_area_level_1","political"]},{"long_name":"Philippines","short_name":"PH","types":["country","political"]}],"formatted_address":"Camiguin Island, Camiguin, Philippines","geometry":{"bounds":{"northeast":{"lat":9.2580606,"lng":124.806468},"southwest":{"lat":9.0787702,"lng":124.6333946}},"location":{"lat":9.1732164,"lng":124.7298765},"location_type":"APPROXIMATE","viewport":{"northeast":{"lat":9.2580606,"lng":124.806468},"southwest":{"lat":9.0787702,"lng":124.6333946}}},"place_id":"ChIJIwKR5VFuADMRsHhDbkYtCUQ","types":["establishment","natural_feature"]}],"status":"OK"},"location":[124.7298765,9.1732164],"psgcCode":"101800000","name":"CAMIGUIN","regionCode":"10","provinceCode":"1018","_p_region":"Region$9KROAdFrWS","_created_at":{"$date":"2017-09-14T13:19:28.152Z"},"_updated_at":{"$date":"2017-09-14T13:19:28.152Z"}}
,{"_id":"ifS57BEMBQ","geoCode":{"results":[{"address_components":[{"long_name":"Misamis Oriental","short_name":"Misamis Oriental","types":["administrative_area_level_2","political"]},{"long_name":"Northern Mindanao","short_name":"Northern Mindanao","types":["administrative_area_level_1","political"]},{"long_name":"Philippines","short_name":"PH","types":["country","political"]}],"formatted_address":"Misamis Oriental, Philippines","geometry":{"bounds":{"northeast":{"lat":9.095564099999999,"lng":125.2555001},"southwest":{"lat":8.2358519,"lng":124.2491}},"location":{"lat":8.5045558,"lng":124.6219592},"location_type":"APPROXIMATE","viewport":{"northeast":{"lat":9.095564099999999,"lng":125.2555001},"southwest":{"lat":8.2358519,"lng":124.2491}}},"place_id":"ChIJm3jOs6vl_zIRE0oF-rtsoYY","types":["administrative_area_level_2","political"]}],"status":"OK"},"location":[124.6219592,8.5045558],"psgcCode":"104300000","name":"MISAMIS ORIENTAL","regionCode":"10","provinceCode":"1043","_p_region":"Region$9KROAdFrWS","_created_at":{"$date":"2017-09-14T13:19:28.174Z"},"_updated_at":{"$date":"2017-09-14T13:19:28.174Z"}}
,{"_id":"AVJqe54U4B","geoCode":{"results":[{"address_components":[{"long_name":"Lanao del Norte","short_name":"Lanao del Norte","types":["administrative_area_level_2","political"]},{"long_name":"Northern Mindanao","short_name":"Northern Mindanao","types":["administrative_area_level_1","political"]},{"long_name":"Philippines","short_name":"PH","types":["country","political"]}],"formatted_address":"Lanao del Norte, Philippines","geometry":{"bounds":{"northeast":{"lat":8.3414729,"lng":124.573305},"southwest":{"lat":7.6934621,"lng":123.621328}},"location":{"lat":7.8721811,"lng":123.8857747},"location_type":"APPROXIMATE","viewport":{"northeast":{"lat":8.3414729,"lng":124.573305},"southwest":{"lat":7.6934621,"lng":123.621328}}},"place_id":"ChIJBXUpcVy5VTIRh-s9Mn1Hh58","types":["administrative_area_level_2","political"]}],"status":"OK"},"location":[123.8857747,7.8721811],"psgcCode":"103500000","name":"LANAO DEL NORTE","regionCode":"10","provinceCode":"1035","_p_region":"Region$9KROAdFrWS","_created_at":{"$date":"2017-09-14T13:19:28.153Z"},"_updated_at":{"$date":"2017-09-14T13:19:28.153Z"}}
,{"_id":"1SOH6nOFS4","geoCode":{"results":[{"address_components":[{"long_name":"Misamis Occidental","short_name":"Misamis Occidental","types":["administrative_area_level_2","political"]},{"long_name":"Northern Mindanao","short_name":"Northern Mindanao","types":["administrative_area_level_1","political"]},{"long_name":"Philippines","short_name":"PH","types":["country","political"]}],"formatted_address":"Misamis Occidental, Philippines","geometry":{"bounds":{"northeast":{"lat":8.668951999999999,"lng":123.872673},"southwest":{"lat":8.0119569,"lng":123.555626}},"location":{"lat":8.337490299999999,"lng":123.7070619},"location_type":"APPROXIMATE","viewport":{"northeast":{"lat":8.668951999999999,"lng":123.872673},"southwest":{"lat":8.0119569,"lng":123.555626}}},"place_id":"ChIJiZB3Hg78VDIRi5OhC9ooo_c","types":["administrative_area_level_2","political"]}],"status":"OK"},"location":[123.7070619,8.337490299999999],"psgcCode":"104200000","name":"MISAMIS OCCIDENTAL","regionCode":"10","provinceCode":"1042","_p_region":"Region$9KROAdFrWS","_created_at":{"$date":"2017-09-14T13:19:28.153Z"},"_updated_at":{"$date":"2017-09-14T13:19:28.153Z"}}
,{"_id":"E0fEBzQekz","geoCode":{"results":[{"address_components":[{"long_name":"Davao City","short_name":"Davao City","types":["locality","political"]},{"long_name":"Davao del Sur","short_name":"Davao del Sur","types":["administrative_area_level_2","political"]},{"long_name":"Davao Region","short_name":"Davao Region","types":["administrative_area_level_1","political"]},{"long_name":"Philippines","short_name":"PH","types":["country","political"]}],"formatted_address":"Davao City, Davao del Sur, Philippines","geometry":{"bounds":{"northeast":{"lat":7.568203699999999,"lng":125.6803201},"southwest":{"lat":6.9385257,"lng":125.2218246}},"location":{"lat":7.190708,"lng":125.455341},"location_type":"APPROXIMATE","viewport":{"northeast":{"lat":7.568203699999999,"lng":125.6803201},"southwest":{"lat":6.9385257,"lng":125.2218246}}},"place_id":"ChIJfzKeUZ9t-TIRc8V5n1gkOrU","types":["locality","political"]}],"status":"OK"},"location":[125.455341,7.190708],"psgcCode":"112300000","name":"DAVAO DEL NORTE","regionCode":"11","provinceCode":"1123","_p_region":"Region$CJAXnvW1Lc","_created_at":{"$date":"2017-09-14T13:19:28.176Z"},"_updated_at":{"$date":"2017-09-14T13:19:28.176Z"}}
,{"_id":"iw9q0IWgEg","geoCode":{"results":[{"address_components":[{"long_name":"Davao City","short_name":"Davao City","types":["locality","political"]},{"long_name":"Davao del Sur","short_name":"Davao del Sur","types":["administrative_area_level_2","political"]},{"long_name":"Davao Region","short_name":"Davao Region","types":["administrative_area_level_1","political"]},{"long_name":"Philippines","short_name":"PH","types":["country","political"]}],"formatted_address":"Davao City, Davao del Sur, Philippines","geometry":{"bounds":{"northeast":{"lat":7.568203699999999,"lng":125.6803201},"southwest":{"lat":6.9385257,"lng":125.2218246}},"location":{"lat":7.190708,"lng":125.455341},"location_type":"APPROXIMATE","viewport":{"northeast":{"lat":7.568203699999999,"lng":125.6803201},"southwest":{"lat":6.9385257,"lng":125.2218246}}},"place_id":"ChIJfzKeUZ9t-TIRc8V5n1gkOrU","types":["locality","political"]}],"status":"OK"},"location":[125.455341,7.190708],"psgcCode":"112400000","name":"DAVAO DEL SUR","regionCode":"11","provinceCode":"1124","_p_region":"Region$CJAXnvW1Lc","_created_at":{"$date":"2017-09-14T13:19:28.265Z"},"_updated_at":{"$date":"2017-09-14T13:19:28.265Z"}}
,{"_id":"pJCCaYwMub","geoCode":{"results":[{"address_components":[{"long_name":"Davao Oriental","short_name":"Davao Oriental","types":["administrative_area_level_2","political"]},{"long_name":"Davao Region","short_name":"Davao Region","types":["administrative_area_level_1","political"]},{"long_name":"Philippines","short_name":"PH","types":["country","political"]}],"formatted_address":"Davao Oriental, Philippines","geometry":{"bounds":{"northeast":{"lat":8.0013469,"lng":126.6015399},"southwest":{"lat":5.5508369,"lng":125.936218}},"location":{"lat":7.3171585,"lng":126.5419887},"location_type":"APPROXIMATE","viewport":{"northeast":{"lat":8.0013469,"lng":126.6015399},"southwest":{"lat":5.5508369,"lng":125.936218}}},"place_id":"ChIJcxTY00Bz_DIRpBvHwBC7z2I","types":["administrative_area_level_2","political"]}],"status":"OK"},"location":[126.5419887,7.3171585],"psgcCode":"112500000","name":"DAVAO ORIENTAL","regionCode":"11","provinceCode":"1125","_p_region":"Region$CJAXnvW1Lc","_created_at":{"$date":"2017-09-14T13:19:28.270Z"},"_updated_at":{"$date":"2017-09-14T13:19:28.270Z"}}
,{"_id":"O7VeVRVPKB","geoCode":{"results":[{"address_components":[{"long_name":"Compostela Valley","short_name":"Compostela Valley","types":["administrative_area_level_2","political"]},{"long_name":"Davao Region","short_name":"Davao Region","types":["administrative_area_level_1","political"]},{"long_name":"Philippines","short_name":"PH","types":["country","political"]}],"formatted_address":"Compostela Valley, Philippines","geometry":{"bounds":{"northeast":{"lat":7.9994319,"lng":126.2988501},"southwest":{"lat":7.077611,"lng":125.674365}},"location":{"lat":7.512514999999999,"lng":126.1762615},"location_type":"APPROXIMATE","viewport":{"northeast":{"lat":7.9994319,"lng":126.2988501},"southwest":{"lat":7.077611,"lng":125.674365}}},"place_id":"ChIJ86_JgwsE_DIRSUqB14K5-VU","types":["administrative_area_level_2","political"]}],"status":"OK"},"location":[126.1762615,7.512514999999999],"psgcCode":"118200000","name":"COMPOSTELA VALLEY","regionCode":"11","provinceCode":"1182","_p_region":"Region$CJAXnvW1Lc","_created_at":{"$date":"2017-09-14T13:19:28.274Z"},"_updated_at":{"$date":"2017-09-14T13:19:28.274Z"}}
,{"_id":"gHFcTdpPQ5","geoCode":{"results":[{"address_components":[{"long_name":"Municipality of Sarangani","short_name":"Municipality of Sarangani","types":["locality","political"]},{"long_name":"Davao del Sur","short_name":"Davao del Sur","types":["administrative_area_level_2","political"]},{"long_name":"Davao Region","short_name":"Davao Region","types":["administrative_area_level_1","political"]},{"long_name":"Philippines","short_name":"PH","types":["country","political"]}],"formatted_address":"Municipality of Sarangani, Davao del Sur, Philippines","geometry":{"bounds":{"northeast":{"lat":5.515610199999999,"lng":125.5018903},"southwest":{"lat":5.3653141,"lng":125.3273964}},"location":{"lat":5.4188064,"lng":125.4562795},"location_type":"APPROXIMATE","viewport":{"northeast":{"lat":5.515610199999999,"lng":125.5018903},"southwest":{"lat":5.3653141,"lng":125.3273964}}},"place_id":"ChIJEf2BXCCS9jIR1DDyTR14mbY","types":["locality","political"]}],"status":"OK"},"location":[125.4562795,5.4188064],"psgcCode":"118600000","name":"DAVAO OCCIDENTAL","regionCode":"11","provinceCode":"1186","_p_region":"Region$CJAXnvW1Lc","_created_at":{"$date":"2017-09-14T13:19:28.288Z"},"_updated_at":{"$date":"2017-09-14T13:19:28.288Z"}}
,{"_id":"UKWSmqjroZ","geoCode":{"results":[{"address_components":[{"long_name":"Cotabato","short_name":"Cotabato","types":["administrative_area_level_2","political"]},{"long_name":"Region XII","short_name":"SOCCSKSARGEN","types":["administrative_area_level_1","political"]},{"long_name":"Philippines","short_name":"PH","types":["country","political"]}],"formatted_address":"Cotabato, Philippines","geometry":{"bounds":{"northeast":{"lat":7.681884999999999,"lng":125.31497},"southwest":{"lat":6.7588269,"lng":124.3334349}},"location":{"lat":7.1083349,"lng":125.0388164},"location_type":"APPROXIMATE","viewport":{"northeast":{"lat":7.681884999999999,"lng":125.31497},"southwest":{"lat":6.7588269,"lng":124.3334349}}},"place_id":"ChIJEzcr9xjr-DIRX4BHpgoSE8o","types":["administrative_area_level_2","political"]}],"status":"OK"},"location":[125.0388164,7.1083349],"psgcCode":"124700000","name":"COTABATO (NORTH COTABATO)","regionCode":"12","provinceCode":"1247","_p_region":"Region$GcxFFwptnh","_created_at":{"$date":"2017-09-14T13:19:28.289Z"},"_updated_at":{"$date":"2017-09-14T13:19:28.289Z"}}
,{"_id":"aAmZadPgRG","geoCode":{"results":[{"address_components":[{"long_name":"South Cotabato","short_name":"South Cotabato","types":["administrative_area_level_2","political"]},{"long_name":"Region XII","short_name":"SOCCSKSARGEN","types":["administrative_area_level_1","political"]},{"long_name":"Philippines","short_name":"PH","types":["country","political"]}],"formatted_address":"South Cotabato, Philippines","geometry":{"bounds":{"northeast":{"lat":6.6679448,"lng":125.2723331},"southwest":{"lat":5.957796999999999,"lng":124.278951}},"location":{"lat":6.3357565,"lng":124.7740793},"location_type":"APPROXIMATE","viewport":{"northeast":{"lat":6.6679448,"lng":125.2723331},"southwest":{"lat":5.957796999999999,"lng":124.278951}}},"place_id":"ChIJTwbh-1fy9zIRxeEXiD-ImDg","types":["administrative_area_level_2","political"]}],"status":"OK"},"location":[124.7740793,6.3357565],"psgcCode":"126300000","name":"SOUTH COTABATO","regionCode":"12","provinceCode":"1263","_p_region":"Region$GcxFFwptnh","_created_at":{"$date":"2017-09-14T13:19:28.289Z"},"_updated_at":{"$date":"2017-09-14T13:19:28.289Z"}}
,{"_id":"SbxMBoAPz0","geoCode":{"results":[{"address_components":[{"long_name":"Sultan Kudarat","short_name":"Sultan Kudarat","types":["administrative_area_level_2","political"]},{"long_name":"Region XII","short_name":"SOCCSKSARGEN","types":["administrative_area_level_1","political"]},{"long_name":"Philippines","short_name":"PH","types":["country","political"]}],"formatted_address":"Sultan Kudarat, Philippines","geometry":{"bounds":{"northeast":{"lat":6.883467,"lng":125.197615},"southwest":{"lat":6.1172361,"lng":124.014946}},"location":{"lat":6.5069401,"lng":124.4198243},"location_type":"APPROXIMATE","viewport":{"northeast":{"lat":6.883467,"lng":125.197615},"southwest":{"lat":6.1172361,"lng":124.014946}}},"place_id":"ChIJXRGwnwcE-DIR-UUC_6E62Bg","types":["administrative_area_level_2","political"]}],"status":"OK"},"location":[124.4198243,6.5069401],"psgcCode":"126500000","name":"SULTAN KUDARAT","regionCode":"12","provinceCode":"1265","_p_region":"Region$GcxFFwptnh","_created_at":{"$date":"2017-09-14T13:19:28.315Z"},"_updated_at":{"$date":"2017-09-14T13:19:28.315Z"}}
,{"_id":"YfkSz3HhQa","geoCode":{"results":[{"address_components":[{"long_name":"Sarangani","short_name":"Sarangani","types":["administrative_area_level_2","political"]},{"long_name":"Region XII","short_name":"SOCCSKSARGEN","types":["administrative_area_level_1","political"]},{"long_name":"Philippines","short_name":"PH","types":["country","political"]}],"formatted_address":"Sarangani, Philippines","geometry":{"bounds":{"northeast":{"lat":6.468224999999999,"lng":125.5387121},"southwest":{"lat":5.566237999999999,"lng":124.3531991}},"location":{"lat":5.926717500000001,"lng":124.994751},"location_type":"APPROXIMATE","viewport":{"northeast":{"lat":6.468224999999999,"lng":125.5387121},"southwest":{"lat":5.566237999999999,"lng":124.3531991}}},"place_id":"ChIJxU4m7lS59zIRpf_FcCYP9rc","types":["administrative_area_level_2","political"]}],"status":"OK"},"location":[124.994751,5.926717500000001],"psgcCode":"128000000","name":"SARANGANI","regionCode":"12","provinceCode":"1280","_p_region":"Region$GcxFFwptnh","_created_at":{"$date":"2017-09-14T13:19:28.316Z"},"_updated_at":{"$date":"2017-09-14T13:19:28.316Z"}}
,{"_id":"Ly6h20lVh1","geoCode":{"results":[{"address_components":[{"long_name":"1st","short_name":"1st","types":["route"]},{"long_name":"Paco","short_name":"Paco","types":["political","sublocality","sublocality_level_1"]},{"long_name":"Manila","short_name":"Manila","types":["locality","political"]},{"long_name":"Metro Manila","short_name":"NCR","types":["administrative_area_level_1","political"]},{"long_name":"Philippines","short_name":"PH","types":["country","political"]}],"formatted_address":"1st, Paco, Manila, Metro Manila, Philippines","geometry":{"bounds":{"northeast":{"lat":14.5783988,"lng":121.0011331},"southwest":{"lat":14.576184,"lng":120.9981544}},"location":{"lat":14.5783442,"lng":120.9995435},"location_type":"GEOMETRIC_CENTER","viewport":{"northeast":{"lat":14.5786403802915,"lng":121.0011331},"southwest":{"lat":14.5759424197085,"lng":120.9981544}}},"place_id":"ChIJzzxJBJDJlzMRQfRbjmydW1M","types":["route"]}],"status":"OK"},"location":[120.9995435,14.5783442],"psgcCode":"133900000","name":"NCR, CITY OF MANILA, FIRST DISTRICT","regionCode":"13","provinceCode":"1339","_p_region":"Region$nTzF0Z8KhR","_created_at":{"$date":"2017-09-14T13:19:28.332Z"},"_updated_at":{"$date":"2017-09-14T13:19:28.332Z"}}
,{"_id":"yDbqx7aoWa","geoCode":{"results":[{"address_components":[{"long_name":"Cotabato City","short_name":"Cotabato City","types":["locality","political"]},{"long_name":"Maguindanao","short_name":"Maguindanao","types":["administrative_area_level_2","political"]},{"long_name":"SOCCSKSARGEN","short_name":"SOCCSKSARGEN","types":["administrative_area_level_1","political"]},{"long_name":"Philippines","short_name":"PH","types":["country","political"]}],"formatted_address":"Cotabato City, Maguindanao, Philippines","geometry":{"bounds":{"northeast":{"lat":7.267757400000001,"lng":124.3308377},"southwest":{"lat":7.1295949,"lng":124.158082}},"location":{"lat":7.2046668,"lng":124.2310439},"location_type":"APPROXIMATE","viewport":{"northeast":{"lat":7.267757400000001,"lng":124.3308377},"southwest":{"lat":7.1295949,"lng":124.158082}}},"place_id":"ChIJqfmFEtg7VjIRU0e50bkyNPE","types":["locality","political"]}],"status":"OK"},"location":[124.2310439,7.2046668],"psgcCode":"129800000","name":"COTABATO CITY","regionCode":"12","provinceCode":"1298","_p_region":"Region$GcxFFwptnh","_created_at":{"$date":"2017-09-14T13:19:28.320Z"},"_updated_at":{"$date":"2017-09-14T13:19:28.320Z"}}
,{"_id":"lAbOjwV0BJ","geoCode":{"results":[{"address_components":[{"long_name":"2nd","short_name":"2nd","types":["route"]},{"long_name":"Paco","short_name":"Paco","types":["political","sublocality","sublocality_level_1"]},{"long_name":"Manila","short_name":"Manila","types":["locality","political"]},{"long_name":"Metro Manila","short_name":"NCR","types":["administrative_area_level_1","political"]},{"long_name":"Philippines","short_name":"PH","types":["country","political"]}],"formatted_address":"2nd, Paco, Manila, Metro Manila, Philippines","geometry":{"bounds":{"northeast":{"lat":14.5780647,"lng":121.0001906},"southwest":{"lat":14.5762209,"lng":120.9984443}},"location":{"lat":14.577679,"lng":120.998777},"location_type":"GEOMETRIC_CENTER","viewport":{"northeast":{"lat":14.5784917802915,"lng":121.0006664302915},"southwest":{"lat":14.5757938197085,"lng":120.9979684697085}}},"place_id":"ChIJGYKuAZDJlzMRFw1ZDF6ZMcQ","types":["route"]},{"address_components":[{"long_name":"2nd","short_name":"2nd","types":["route"]},{"long_name":"Novaliches","short_name":"Novaliches","types":["political","sublocality","sublocality_level_1"]},{"long_name":"Quezon City","short_name":"QC","types":["locality","political"]},{"long_name":"Metro Manila","short_name":"NCR","types":["administrative_area_level_1","political"]},{"long_name":"Philippines","short_name":"PH","types":["country","political"]}],"formatted_address":"2nd, Novaliches, Quezon City, Metro Manila, Philippines","geometry":{"bounds":{"northeast":{"lat":14.7035849,"lng":121.0326594},"southwest":{"lat":14.7022907,"lng":121.0314525}},"location":{"lat":14.7029367,"lng":121.0319433},"location_type":"GEOMETRIC_CENTER","viewport":{"northeast":{"lat":14.7042867802915,"lng":121.0334049302915},"southwest":{"lat":14.7015888197085,"lng":121.0307069697085}}},"place_id":"ChIJQ6nkvyCxlzMRDl9RYX6myCc","types":["route"]},{"address_components":[{"long_name":"2nd","short_name":"2nd","types":["route"]},{"long_name":"Makati","short_name":"Makati","types":["locality","political"]},{"long_name":"Metro Manila","short_name":"NCR","types":["administrative_area_level_1","political"]},{"long_name":"Philippines","short_name":"PH","types":["country","political"]}],"formatted_address":"2nd, Makati, Metro Manila, Philippines","geometry":{"bounds":{"northeast":{"lat":14.5509284,"lng":121.0647931},"southwest":{"lat":14.5487566,"lng":121.0640615}},"location":{"lat":14.5497182,"lng":121.0646117},"location_type":"GEOMETRIC_CENTER","viewport":{"northeast":{"lat":14.5511914802915,"lng":121.0657762802915},"southwest":{"lat":14.5484935197085,"lng":121.0630783197085}}},"place_id":"ChIJw8Wk-47IlzMR6Ycpr80DWGM","types":["route"]},{"address_components":[{"long_name":"2nd","short_name":"2nd","types":["route"]},{"long_name":"Pasig","short_name":"Pasig","types":["locality","political"]},{"long_name":"Metro Manila","short_name":"NCR","types":["administrative_area_level_1","political"]},{"long_name":"Philippines","short_name":"PH","types":["country","political"]}],"formatted_address":"2nd, Pasig, Metro Manila, Philippines","geometry":{"bounds":{"northeast":{"lat":14.5845548,"lng":121.1061221},"southwest":{"lat":14.5838262,"lng":121.1031539}},"location":{"lat":14.5841592,"lng":121.1048052},"location_type":"GEOMETRIC_CENTER","viewport":{"northeast":{"lat":14.5855394802915,"lng":121.1061221},"southwest":{"lat":14.5828415197085,"lng":121.1031539}}},"place_id":"ChIJeXRuBY3HlzMReauuNSWQ_cw","types":["route"]},{"address_components":[{"long_name":"2nd","short_name":"2nd","types":["route"]},{"long_name":"Pateros","short_name":"Pateros","types":["locality","political"]},{"long_name":"Metro Manila","short_name":"NCR","types":["administrative_area_level_1","political"]},{"long_name":"Philippines","short_name":"PH","types":["country","political"]}],"formatted_address":"2nd, Pateros, Metro Manila, Philippines","geometry":{"bounds":{"northeast":{"lat":14.5400964,"lng":121.0708631},"southwest":{"lat":14.5393198,"lng":121.070713}},"location":{"lat":14.5397054,"lng":121.0707761},"location_type":"GEOMETRIC_CENTER","viewport":{"northeast":{"lat":14.5410570802915,"lng":121.0721370302915},"southwest":{"lat":14.5383591197085,"lng":121.0694390697085}}},"place_id":"ChIJtegDnpnIlzMRFVCg-dlBQf4","types":["route"]},{"address_components":[{"long_name":"2nd","short_name":"2nd","types":["route"]},{"long_name":"Paraaque","short_name":"Paraaque","types":["locality","political"]},{"long_name":"Metro Manila","short_name":"NCR","types":["administrative_area_level_1","political"]},{"long_name":"Philippines","short_name":"PH","types":["country","political"]}],"formatted_address":"2nd, Paraaque, Metro Manila, Philippines","geometry":{"bounds":{"northeast":{"lat":14.4656346,"lng":121.0061458},"southwest":{"lat":14.4645739,"lng":121.0049362}},"location":{"lat":14.4651261,"lng":121.0055538},"location_type":"GEOMETRIC_CENTER","viewport":{"northeast":{"lat":14.4664532302915,"lng":121.0068899802915},"southwest":{"lat":14.4637552697085,"lng":121.0041920197085}}},"place_id":"ChIJO3RMg2vOlzMRiAoclXRfgLw","types":["route"]},{"address_components":[{"long_name":"2nd","short_name":"2nd","types":["route"]},{"long_name":"Caloocan","short_name":"Caloocan","types":["locality","political"]},{"long_name":"Metro Manila","short_name":"NCR","types":["administrative_area_level_1","political"]},{"long_name":"Philippines","short_name":"PH","types":["country","political"]}],"formatted_address":"2nd, Caloocan, Metro Manila, Philippines","geometry":{"bounds":{"northeast":{"lat":14.772697,"lng":121.0299661},"southwest":{"lat":14.7726164,"lng":121.0280422}},"location":{"lat":14.7726239,"lng":121.0289567},"location_type":"GEOMETRIC_CENTER","viewport":{"northeast":{"lat":14.7740056802915,"lng":121.0303531302915},"southwest":{"lat":14.7713077197085,"lng":121.0276551697085}}},"place_id":"ChIJKePfxSuulzMRdhHwuGjZMOg","types":["route"]}],"status":"OK"},"location":[120.998777,14.577679],"psgcCode":"137400000","name":"NCR, SECOND DISTRICT","regionCode":"13","provinceCode":"1374","_p_region":"Region$nTzF0Z8KhR","_created_at":{"$date":"2017-09-14T13:19:28.334Z"},"_updated_at":{"$date":"2017-09-14T13:19:28.334Z"}}
,{"_id":"HbwnEACst6","geoCode":{"results":[{"address_components":[{"long_name":"Manila","short_name":"Manila","types":["locality","political"]},{"long_name":"Metro Manila","short_name":"NCR","types":["administrative_area_level_1","political"]},{"long_name":"Philippines","short_name":"PH","types":["country","political"]}],"formatted_address":"Manila, Metro Manila, Philippines","geometry":{"bounds":{"northeast":{"lat":14.6390175,"lng":121.0261686},"southwest":{"lat":14.5539791,"lng":120.932951}},"location":{"lat":14.5995124,"lng":120.9842195},"location_type":"APPROXIMATE","viewport":{"northeast":{"lat":14.6390175,"lng":121.0261686},"southwest":{"lat":14.5539791,"lng":120.932951}}},"place_id":"ChIJi8MeVwPKlzMRH8FpEHXV0Wk","types":["locality","political"]}],"status":"OK"},"location":[120.9842195,14.5995124],"psgcCode":"133900000","name":"CITY OF MANILA","regionCode":"13","provinceCode":"1339","_p_region":"Region$nTzF0Z8KhR","_created_at":{"$date":"2017-09-14T13:19:28.333Z"},"_updated_at":{"$date":"2017-09-14T13:19:28.333Z"}}
,{"_id":"jZmX5IEpzm","geoCode":{"results":[{"address_components":[{"long_name":"3rd","short_name":"3rd","types":["route"]},{"long_name":"Paco","short_name":"Paco","types":["political","sublocality","sublocality_level_1"]},{"long_name":"Manila","short_name":"Manila","types":["locality","political"]},{"long_name":"Metro Manila","short_name":"NCR","types":["administrative_area_level_1","political"]},{"long_name":"Philippines","short_name":"PH","types":["country","political"]}],"formatted_address":"3rd, Paco, Manila, Metro Manila, Philippines","geometry":{"bounds":{"northeast":{"lat":14.5777646,"lng":121.0002095},"southwest":{"lat":14.576342,"lng":120.9987607}},"location":{"lat":14.5775117,"lng":120.9990667},"location_type":"GEOMETRIC_CENTER","viewport":{"northeast":{"lat":14.5784022802915,"lng":121.0008340802915},"southwest":{"lat":14.57570431970849,"lng":120.9981361197085}}},"place_id":"ChIJ7xTQAJDJlzMRIPR3e-NRZg4","types":["route"]},{"address_components":[{"long_name":"3rd","short_name":"3rd","types":["route"]},{"long_name":"Manila","short_name":"Manila","types":["locality","political"]},{"long_name":"Metro Manila","short_name":"NCR","types":["administrative_area_level_1","political"]},{"long_name":"Philippines","short_name":"PH","types":["country","political"]}],"formatted_address":"3rd, Manila, Metro Manila, Philippines","geometry":{"bounds":{"northeast":{"lat":14.5490043,"lng":121.0658805},"southwest":{"lat":14.5484303,"lng":121.0656875}},"location":{"lat":14.5488049,"lng":121.065743},"location_type":"GEOMETRIC_CENTER","viewport":{"northeast":{"lat":14.5500662802915,"lng":121.0671329802915},"southwest":{"lat":14.5473683197085,"lng":121.0644350197085}}},"place_id":"ChIJ8yS1B4_IlzMRhhCo_dlY49o","types":["route"]},{"address_components":[{"long_name":"3rd","short_name":"3rd","types":["route"]},{"long_name":"Pasig","short_name":"Pasig","types":["locality","political"]},{"long_name":"Metro Manila","short_name":"NCR","types":["administrative_area_level_1","political"]},{"long_name":"Philippines","short_name":"PH","types":["country","political"]}],"formatted_address":"3rd, Pasig, Metro Manila, Philippines","geometry":{"bounds":{"northeast":{"lat":14.584287,"lng":121.1089345},"southwest":{"lat":14.5808479,"lng":121.1030652}},"location":{"lat":14.5825052,"lng":121.1060467},"location_type":"GEOMETRIC_CENTER","viewport":{"northeast":{"lat":14.584287,"lng":121.1089345},"southwest":{"lat":14.5808479,"lng":121.1030652}}},"place_id":"ChIJc-_sj43HlzMR1C9VEeYiVeQ","types":["route"]},{"address_components":[{"long_name":"3rd","short_name":"3rd","types":["route"]},{"long_name":"Valenzuela","short_name":"Valenzuela","types":["locality","political"]},{"long_name":"Metro Manila","short_name":"NCR","types":["administrative_area_level_1","political"]},{"long_name":"Philippines","short_name":"PH","types":["country","political"]}],"formatted_address":"3rd, Valenzuela, Metro Manila, Philippines","geometry":{"bounds":{"northeast":{"lat":14.7026125,"lng":120.989614},"southwest":{"lat":14.7010887,"lng":120.987919}},"location":{"lat":14.7015237,"lng":120.9885225},"location_type":"GEOMETRIC_CENTER","viewport":{"northeast":{"lat":14.7031995802915,"lng":120.9901154802915},"southwest":{"lat":14.7005016197085,"lng":120.9874175197085}}},"place_id":"ChIJD6QE-1exlzMRiXzIld9X_IM","types":["route"]},{"address_components":[{"long_name":"3rd","short_name":"3rd","types":["route"]},{"long_name":"Caloocan","short_name":"Caloocan","types":["locality","political"]},{"long_name":"Metro Manila","short_name":"NCR","types":["administrative_area_level_1","political"]},{"long_name":"Philippines","short_name":"PH","types":["country","political"]}],"formatted_address":"3rd, Caloocan, Metro Manila, Philippines","geometry":{"bounds":{"northeast":{"lat":14.773008,"lng":121.0299571},"southwest":{"lat":14.7729106,"lng":121.0283159}},"location":{"lat":14.7729713,"lng":121.0291969},"location_type":"GEOMETRIC_CENTER","viewport":{"northeast":{"lat":14.7743082802915,"lng":121.0304854802915},"southwest":{"lat":14.7716103197085,"lng":121.0277875197085}}},"place_id":"ChIJS80QwSuulzMR2EuYNONbnNo","types":["route"]}],"status":"OK"},"location":[120.9990667,14.5775117],"psgcCode":"137500000","name":"NCR, THIRD DISTRICT","regionCode":"13","provinceCode":"1375","_p_region":"Region$nTzF0Z8KhR","_created_at":{"$date":"2017-09-14T13:19:28.363Z"},"_updated_at":{"$date":"2017-09-14T13:19:28.363Z"}}
,{"_id":"sJDOpfV3VA","geoCode":{"results":[{"address_components":[{"long_name":"4th","short_name":"4th","types":["route"]},{"long_name":"New Manila","short_name":"New Manila","types":["political","sublocality","sublocality_level_1"]},{"long_name":"Quezon City","short_name":"QC","types":["locality","political"]},{"long_name":"Metro Manila","short_name":"NCR","types":["administrative_area_level_1","political"]},{"long_name":"Philippines","short_name":"PH","types":["country","political"]}],"formatted_address":"4th, New Manila, Quezon City, Metro Manila, Philippines","geometry":{"bounds":{"northeast":{"lat":14.6182607,"lng":121.0388094},"southwest":{"lat":14.6171481,"lng":121.0368651}},"location":{"lat":14.6175863,"lng":121.0376309},"location_type":"GEOMETRIC_CENTER","viewport":{"northeast":{"lat":14.6190533802915,"lng":121.0391862302915},"southwest":{"lat":14.61635541970849,"lng":121.0364882697085}}},"place_id":"ChIJj5C4dMy3lzMRJlbtDRnhzUA","types":["route"]},{"address_components":[{"long_name":"4th","short_name":"4th","types":["route"]},{"long_name":"Manila","short_name":"Manila","types":["locality","political"]},{"long_name":"Metro Manila","short_name":"NCR","types":["administrative_area_level_1","political"]},{"long_name":"Philippines","short_name":"PH","types":["country","political"]}],"formatted_address":"4th, Manila, Metro Manila, Philippines","geometry":{"bounds":{"northeast":{"lat":14.5501085,"lng":121.0661173},"southwest":{"lat":14.5491123,"lng":121.065978}},"location":{"lat":14.5495983,"lng":121.0660353},"location_type":"GEOMETRIC_CENTER","viewport":{"northeast":{"lat":14.5509593802915,"lng":121.0673966302915},"southwest":{"lat":14.5482614197085,"lng":121.0646986697085}}},"place_id":"ChIJ71JZDo_IlzMRSX5gMMnVLAU","types":["route"]},{"address_components":[{"long_name":"4th","short_name":"4th","types":["route"]},{"long_name":"Paco","short_name":"Paco","types":["political","sublocality","sublocality_level_1"]},{"long_name":"Manila","short_name":"Manila","types":["locality","political"]},{"long_name":"Metro Manila","short_name":"NCR","types":["administrative_area_level_1","political"]},{"long_name":"Philippines","short_name":"PH","types":["country","political"]}],"formatted_address":"4th, Paco, Manila, Metro Manila, Philippines","geometry":{"bounds":{"northeast":{"lat":14.5774538,"lng":121.0002289},"southwest":{"lat":14.5764517,"lng":120.9990791}},"location":{"lat":14.5774258,"lng":120.9996354},"location_type":"GEOMETRIC_CENTER","viewport":{"northeast":{"lat":14.5783017302915,"lng":121.0010029802915},"southwest":{"lat":14.5756037697085,"lng":120.9983050197085}}},"place_id":"ChIJWUJvB5DJlzMRIqhAH7S9mcM","types":["route"]},{"address_components":[{"long_name":"4th","short_name":"4th","types":["route"]},{"long_name":"Valenzuela","short_name":"Valenzuela","types":["locality","political"]},{"long_name":"Metro Manila","short_name":"NCR","types":["administrative_area_level_1","political"]},{"long_name":"Philippines","short_name":"PH","types":["country","political"]}],"formatted_address":"4th, Valenzuela, Metro Manila, Philippines","geometry":{"bounds":{"northeast":{"lat":14.7022323,"lng":120.9891243},"southwest":{"lat":14.7012217,"lng":120.9881482}},"location":{"lat":14.7018415,"lng":120.9886862},"location_type":"GEOMETRIC_CENTER","viewport":{"northeast":{"lat":14.7030759802915,"lng":120.9899852302915},"southwest":{"lat":14.7003780197085,"lng":120.9872872697085}}},"place_id":"ChIJA4I36VexlzMRKy4tl8YUccs","types":["route"]},{"address_components":[{"long_name":"4th","short_name":"4th","types":["route"]},{"long_name":"Pasig","short_name":"Pasig","types":["locality","political"]},{"long_name":"Metro Manila","short_name":"NCR","types":["administrative_area_level_1","political"]},{"long_name":"Philippines","short_name":"PH","types":["country","political"]},{"long_name":"1800","short_name":"1800","types":["postal_code"]}],"formatted_address":"4th, Pasig, 1800 Metro Manila, Philippines","geometry":{"bounds":{"northeast":{"lat":14.61948,"lng":121.097824},"southwest":{"lat":14.6159635,"lng":121.0938222}},"location":{"lat":14.6160973,"lng":121.0949056},"location_type":"GEOMETRIC_CENTER","viewport":{"northeast":{"lat":14.61948,"lng":121.097824},"southwest":{"lat":14.6159635,"lng":121.0938222}}},"place_id":"ChIJ-VRpmD24lzMRqrlSqKIgB8Q","types":["route"]},{"address_components":[{"long_name":"4th","short_name":"4th","types":["route"]},{"long_name":"Caloocan","short_name":"Caloocan","types":["locality","political"]},{"long_name":"Metro Manila","short_name":"NCR","types":["administrative_area_level_1","political"]},{"long_name":"Philippines","short_name":"PH","types":["country","political"]}],"formatted_address":"4th, Caloocan, Metro Manila, Philippines","geometry":{"bounds":{"northeast":{"lat":14.7731021,"lng":121.0299557},"southwest":{"lat":14.773048,"lng":121.027973}},"location":{"lat":14.7731005,"lng":121.0292538},"location_type":"GEOMETRIC_CENTER","viewport":{"northeast":{"lat":14.7744240302915,"lng":121.0303133302915},"southwest":{"lat":14.7717260697085,"lng":121.0276153697085}}},"place_id":"ChIJ3zCUwSuulzMREGjllVOPwWA","types":["route"]}],"status":"OK"},"location":[121.0376309,14.6175863],"psgcCode":"137600000","name":"NCR, FOURTH DISTRICT","regionCode":"13","provinceCode":"1376","_p_region":"Region$nTzF0Z8KhR","_created_at":{"$date":"2017-09-14T13:19:28.364Z"},"_updated_at":{"$date":"2017-09-14T13:19:28.364Z"}}
,{"_id":"89LSPoYxDU","geoCode":{"results":[{"address_components":[{"long_name":"Abra","short_name":"Abra","types":["administrative_area_level_2","political"]},{"long_name":"Cordillera Administrative Region","short_name":"CAR","types":["administrative_area_level_1","political"]},{"long_name":"Philippines","short_name":"PH","types":["country","political"]}],"formatted_address":"Abra, Philippines","geometry":{"bounds":{"northeast":{"lat":17.979682,"lng":121.124898},"southwest":{"lat":17.154255,"lng":120.463118}},"location":{"lat":17.5951122,"lng":120.7982528},"location_type":"APPROXIMATE","viewport":{"northeast":{"lat":17.979682,"lng":121.124898},"southwest":{"lat":17.154255,"lng":120.463118}}},"place_id":"ChIJo67CZEdRjjMRBqxbZkMjj74","types":["administrative_area_level_2","political"]}],"status":"OK"},"location":[120.7982528,17.5951122],"psgcCode":"140100000","name":"ABRA","regionCode":"14","provinceCode":"1401","_p_region":"Region$K6LEAoQ6RH","_created_at":{"$date":"2017-09-14T13:19:28.368Z"},"_updated_at":{"$date":"2017-09-14T13:19:28.368Z"}}
,{"_id":"2sCMSR3vVK","geoCode":{"results":[{"address_components":[{"long_name":"Benguet","short_name":"Benguet","types":["administrative_area_level_2","political"]},{"long_name":"Cordillera Administrative Region","short_name":"CAR","types":["administrative_area_level_1","political"]},{"long_name":"Philippines","short_name":"PH","types":["country","political"]}],"formatted_address":"Benguet, Philippines","geometry":{"bounds":{"northeast":{"lat":16.9382421,"lng":120.904165},"southwest":{"lat":16.186448,"lng":120.468057}},"location":{"lat":16.5577257,"lng":120.8039474},"location_type":"APPROXIMATE","viewport":{"northeast":{"lat":16.9382421,"lng":120.904165},"southwest":{"lat":16.186448,"lng":120.468057}}},"place_id":"ChIJ26IUCuq7kTMRwQ4qL7ft9Dw","types":["administrative_area_level_2","political"]}],"status":"OK"},"location":[120.8039474,16.5577257],"psgcCode":"141100000","name":"BENGUET","regionCode":"14","provinceCode":"1411","_p_region":"Region$K6LEAoQ6RH","_created_at":{"$date":"2017-09-14T13:19:28.368Z"},"_updated_at":{"$date":"2017-09-14T13:19:28.368Z"}}
,{"_id":"g6vuPKEn1R","geoCode":{"results":[{"address_components":[{"long_name":"Kalinga","short_name":"Kalinga","types":["administrative_area_level_2","political"]},{"long_name":"Cordillera Administrative Region","short_name":"CAR","types":["administrative_area_level_1","political"]},{"long_name":"Philippines","short_name":"PH","types":["country","political"]}],"formatted_address":"Kalinga, Philippines","geometry":{"bounds":{"northeast":{"lat":17.6889911,"lng":121.682251},"southwest":{"lat":17.1616239,"lng":120.909971}},"location":{"lat":17.4740422,"lng":121.3541631},"location_type":"APPROXIMATE","viewport":{"northeast":{"lat":17.6889911,"lng":121.682251},"southwest":{"lat":17.1616239,"lng":120.909971}}},"place_id":"ChIJFbFqIu-YjzMR8p4pWPlaWfg","types":["administrative_area_level_2","political"]}],"status":"OK"},"location":[121.3541631,17.4740422],"psgcCode":"143200000","name":"KALINGA","regionCode":"14","provinceCode":"1432","_p_region":"Region$K6LEAoQ6RH","_created_at":{"$date":"2017-09-14T13:19:28.386Z"},"_updated_at":{"$date":"2017-09-14T13:19:28.386Z"}}
,{"_id":"tSfRCJKK9D","geoCode":{"results":[{"address_components":[{"long_name":"Ifugao","short_name":"Ifugao","types":["administrative_area_level_2","political"]},{"long_name":"Cordillera Administrative Region","short_name":"CAR","types":["administrative_area_level_1","political"]},{"long_name":"Philippines","short_name":"PH","types":["country","political"]}],"formatted_address":"Ifugao, Philippines","geometry":{"bounds":{"northeast":{"lat":17.071433,"lng":121.5859809},"southwest":{"lat":16.598261,"lng":120.881094}},"location":{"lat":16.8330792,"lng":121.1710389},"location_type":"APPROXIMATE","viewport":{"northeast":{"lat":17.071433,"lng":121.5859809},"southwest":{"lat":16.598261,"lng":120.881094}}},"place_id":"ChIJYY-_Z8wjkDMRQ6b1hXIFS7A","types":["administrative_area_level_2","political"]}],"status":"OK"},"location":[121.1710389,16.8330792],"psgcCode":"142700000","name":"IFUGAO","regionCode":"14","provinceCode":"1427","_p_region":"Region$K6LEAoQ6RH","_created_at":{"$date":"2017-09-14T13:19:28.369Z"},"_updated_at":{"$date":"2017-09-14T13:19:28.369Z"}}
,{"_id":"BxFJsH0lo4","geoCode":{"results":[{"address_components":[{"long_name":"Mountain Province","short_name":"Mountain Province","types":["administrative_area_level_2","political"]},{"long_name":"Cordillera Administrative Region","short_name":"CAR","types":["administrative_area_level_1","political"]},{"long_name":"Philippines","short_name":"PH","types":["country","political"]}],"formatted_address":"Mountain Province, Philippines","geometry":{"bounds":{"northeast":{"lat":17.306318,"lng":121.5659461},"southwest":{"lat":16.822498,"lng":120.770595}},"location":{"lat":17.0663429,"lng":121.03351},"location_type":"APPROXIMATE","viewport":{"northeast":{"lat":17.306318,"lng":121.5659461},"southwest":{"lat":16.822498,"lng":120.770595}}},"place_id":"ChIJzQmFXQrcjzMRXDH0kwRkvnA","types":["administrative_area_level_2","political"]}],"status":"OK"},"location":[121.03351,17.0663429],"psgcCode":"144400000","name":"MOUNTAIN PROVINCE","regionCode":"14","provinceCode":"1444","_p_region":"Region$K6LEAoQ6RH","_created_at":{"$date":"2017-09-14T13:19:28.415Z"},"_updated_at":{"$date":"2017-09-14T13:19:28.415Z"}}
,{"_id":"NmccwKWH50","geoCode":{"results":[{"address_components":[{"long_name":"Maguindanao","short_name":"Maguindanao","types":["administrative_area_level_2","political"]},{"long_name":"Autonomous Region in Muslim Mindanao","short_name":"ARMM","types":["administrative_area_level_1","political"]},{"long_name":"Philippines","short_name":"PH","types":["country","political"]}],"formatted_address":"Maguindanao, Philippines","geometry":{"bounds":{"northeast":{"lat":7.651929099999999,"lng":125.120551},"southwest":{"lat":6.649663899999999,"lng":123.942589}},"location":{"lat":6.9422581,"lng":124.4198243},"location_type":"APPROXIMATE","viewport":{"northeast":{"lat":7.651929099999999,"lng":125.120551},"southwest":{"lat":6.649663899999999,"lng":123.942589}}},"place_id":"ChIJWxKcKE3QVzIR-6qMsxyBg4Y","types":["administrative_area_level_2","political"]}],"status":"OK"},"location":[124.4198243,6.9422581],"psgcCode":"153800000","name":"MAGUINDANAO","regionCode":"15","provinceCode":"1538","_p_region":"Region$s2m5GXU8kQ","_created_at":{"$date":"2017-09-14T13:19:28.427Z"},"_updated_at":{"$date":"2017-09-14T13:19:28.427Z"}}
,{"_id":"k7362iPo9s","geoCode":{"results":[{"address_components":[{"long_name":"Apayao","short_name":"Apayao","types":["administrative_area_level_2","political"]},{"long_name":"Cordillera Administrative Region","short_name":"CAR","types":["administrative_area_level_1","political"]},{"long_name":"Philippines","short_name":"PH","types":["country","political"]}],"formatted_address":"Apayao, Philippines","geometry":{"bounds":{"northeast":{"lat":18.541674,"lng":121.4897879},"southwest":{"lat":17.623744,"lng":120.9254531}},"location":{"lat":18.0120304,"lng":121.1710389},"location_type":"APPROXIMATE","viewport":{"northeast":{"lat":18.541674,"lng":121.4897879},"southwest":{"lat":17.623744,"lng":120.9254531}}},"place_id":"ChIJqx459ao3jzMRYCudRYnrruM","types":["administrative_area_level_2","political"]}],"status":"OK"},"location":[121.1710389,18.0120304],"psgcCode":"148100000","name":"APAYAO","regionCode":"14","provinceCode":"1481","_p_region":"Region$K6LEAoQ6RH","_created_at":{"$date":"2017-09-14T13:19:28.418Z"},"_updated_at":{"$date":"2017-09-14T13:19:28.418Z"}}
,{"_id":"9L0nSGwzjL","geoCode":{"results":[{"address_components":[{"long_name":"Basilan","short_name":"Basilan","types":["administrative_area_level_2","political"]},{"long_name":"Autonomous Region in Muslim Mindanao","short_name":"ARMM","types":["administrative_area_level_1","political"]},{"long_name":"Philippines","short_name":"PH","types":["country","political"]}],"formatted_address":"Basilan, Philippines","geometry":{"bounds":{"northeast":{"lat":6.906267000000001,"lng":122.410645},"southwest":{"lat":6.276003999999999,"lng":121.426933}},"location":{"lat":6.4296349,"lng":121.9870165},"location_type":"APPROXIMATE","viewport":{"northeast":{"lat":6.906267000000001,"lng":122.410645},"southwest":{"lat":6.276003999999999,"lng":121.426933}}},"place_id":"ChIJm8e-SwmjWjIREm8OaJLKqcg","types":["administrative_area_level_2","political"]}],"status":"OK"},